id	lat	lon	title	description	icon	iconSize	iconOffset
1	47.6668	19.0756	Péter-Pál-templom	<h4 style="margin-top:-20px">(Péter-Pál templom (Csiprovacska))</h4><p><a href="http://miserend.hu/?templom=1" target="_blank">Ugrás a templom oldalára.</a></p>	images/icons/church-green.png	24,24	-12,-24
2	47.4786	19.0422	Szent Imre-templom	<h4 style="margin-top:-20px">(Budai Ciszterci templom)</h4><p><a href="http://miserend.hu/?templom=2" target="_blank">Ugrás a templom oldalára.</a></p>	images/icons/church-green.png	24,24	-12,-24
3	47.9023	20.3772	Páduai Szent Antal templom	<h4 style="margin-top:-20px">(Minorita templom)</h4><p><a href="http://miserend.hu/?templom=3" target="_blank">Ugrás a templom oldalára.</a></p>	images/icons/church-green.png	24,24	-12,-24
129	47.7138	17.6521	Nagyboldogasszony-templom	<h4 style="margin-top:-20px">(Kisbácsai templom)</h4><p><a href="http://miserend.hu/?templom=129" target="_blank">Ugrás a templom oldalára.</a></p>	images/icons/church-green.png	24,24	-12,-24
7	47.7269	17.6631	Szent István király templom	<h4 style="margin-top:-20px">(Nagybácsai templom)</h4><p><a href="http://miserend.hu/?templom=7" target="_blank">Ugrás a templom oldalára.</a></p>	images/icons/church-green.png	24,24	-12,-24
3756	47.4459	21.3928	Istenszülő Oltalma-templom	<h4 style="margin-top:-20px">(Hajdúszoboszlói Görögkatolikus templom)</h4><p><a href="http://miserend.hu/?templom=3756" target="_blank">Ugrás a templom oldalára.</a></p>	images/icons/church-green.png	24,24	-12,-24
3757	47.0111	16.6057	Sarlós Boldogasszony templom	<h4 style="margin-top:-20px">(Alsóberki templom)</h4><p><a href="http://miserend.hu/?templom=3757" target="_blank">Ugrás a templom oldalára.</a></p>	images/icons/church-red.png	24,24	-12,-24
859	46.5191	17.6689	Szent Mihály templom	<h4 style="margin-top:-20px">(Osztopán)</h4><p><a href="http://miserend.hu/?templom=859" target="_blank">Ugrás a templom oldalára.</a></p>	images/icons/church-green.png	24,24	-12,-24
860	46.1238	19.3191	Feltámadt Krisztus kápolna	<h4 style="margin-top:-20px">(Temetőkápolna)</h4><p><a href="http://miserend.hu/?templom=860" target="_blank">Ugrás a templom oldalára.</a></p>	images/icons/church-green2.png	24,24	-12,-24
861	46.6038	17.6281	Szent Anna-templom	<h4 style="margin-top:-20px">(Öreglak)</h4><p><a href="http://miserend.hu/?templom=861" target="_blank">Ugrás a templom oldalára.</a></p>	images/icons/church-green.png	24,24	-12,-24
862	46.5799	17.6542	Bűnbánó Szent Mária Magdolna-templom	<h4 style="margin-top:-20px">(Somogyvár)</h4><p><a href="http://miserend.hu/?templom=862" target="_blank">Ugrás a templom oldalára.</a></p>	images/icons/church-green.png	24,24	-12,-24
4965	47.6172	19.0523	Szent Kereszt Felmagasztalása-templom	<h4 style="margin-top:-20px">(Budakalászi templom)</h4><p><a href="http://miserend.hu/?templom=4965" target="_blank">Ugrás a templom oldalára.</a></p>	images/icons/church-green2.png	24,24	-12,-24
4966	47.631	19.0517	Szent István-templom	<h4 style="margin-top:-20px">(Szentistvántelepi Szent István-templom)</h4><p><a href="http://miserend.hu/?templom=4966" target="_blank">Ugrás a templom oldalára.</a></p>	images/icons/church-green.png	24,24	-12,-24
14	47.5561	19.0453	Kövi Szűz Mária templom	<h4 style="margin-top:-20px">(Kövi)</h4><p><a href="http://miserend.hu/?templom=14" target="_blank">Ugrás a templom oldalára.</a></p>	images/icons/church-green.png	24,24	-12,-24
16	47.506	19.0212	Jézus Szíve-templom Városmajor	<h4 style="margin-top:-20px">(Városmajor)</h4><p><a href="http://miserend.hu/?templom=16" target="_blank">Ugrás a templom oldalára.</a></p>	images/icons/church-green.png	24,24	-12,-24
17	47.5191	19.0363	Császárfürdői Szent István kápolna	<h4 style="margin-top:-20px">(Irgalmasrendi kápolna)</h4><p><a href="http://miserend.hu/?templom=17" target="_blank">Ugrás a templom oldalára.</a></p>	images/icons/church-green.png	24,24	-12,-24
18	47.5386	19.0449	Szent Péter és Pál-templom	<h4 style="margin-top:-20px">(Óbuda főplébánia)</h4><p><a href="http://miserend.hu/?templom=18" target="_blank">Ugrás a templom oldalára.</a></p>	images/icons/church-green.png	24,24	-12,-24
5150			Kápolna	<h4 style="margin-top:-20px">(Asszonyrészi görögkatolikus kápolna)</h4><p><a href="http://miserend.hu/?templom=5150" target="_blank">Ugrás a templom oldalára.</a></p>	images/icons/church-red2.png	24,24	-12,-24
19	47.5073	19.1428	Szent István király-templom	<h4 style="margin-top:-20px">(Rákosfalvi templom)</h4><p><a href="http://miserend.hu/?templom=19" target="_blank">Ugrás a templom oldalára.</a></p>	images/icons/church-green.png	24,24	-12,-24
3662	46.0049	20.0409	Sarlós Boldogasszony templom	<h4 style="margin-top:-20px">(Adorján)</h4><p><a href="http://miserend.hu/?templom=3662" target="_blank">Ugrás a templom oldalára.</a></p>	images/icons/church-green.png	24,24	-12,-24
3664	45.8765	18.4756	Szent Imre-templom	<h4 style="margin-top:-20px">(Virágosi templom)</h4><p><a href="http://miserend.hu/?templom=3664" target="_blank">Ugrás a templom oldalára.</a></p>	images/icons/church-green.png	24,24	-12,-24
2063	47.9621	22.8501	Misézőhely	<h4 style="margin-top:-20px">(Nagyhódos)</h4><p><a href="http://miserend.hu/?templom=2063" target="_blank">Ugrás a templom oldalára.</a></p>	images/icons/church-green2.png	24,24	-12,-24
2064	47.679	18.8188	Kisboldogasszony templom	<h4 style="margin-top:-20px">(Piliscsév)</h4><p><a href="http://miserend.hu/?templom=2064" target="_blank">Ugrás a templom oldalára.</a></p>	images/icons/church-green.png	24,24	-12,-24
22	47.5548	19.0956	Szent József templom	<h4 style="margin-top:-20px">(Újpest Nap utcai templom)</h4><p><a href="http://miserend.hu/?templom=22" target="_blank">Ugrás a templom oldalára.</a></p>	images/icons/church-green.png	24,24	-12,-24
23	47.5232	19.0965	Szentlélek-templom	<h4 style="margin-top:-20px">(Herminamezői - Kassai téri templom)</h4><p><a href="http://miserend.hu/?templom=23" target="_blank">Ugrás a templom oldalára.</a></p>	images/icons/church-green.png	24,24	-12,-24
24	47.531	19.0815	Szent László templom	<h4 style="margin-top:-20px">(Béke téri templom (Magdolnavárosi templom))</h4><p><a href="http://miserend.hu/?templom=24" target="_blank">Ugrás a templom oldalára.</a></p>	images/icons/church-green.png	24,24	-12,-24
28	47.5795	19.087	Nagyboldogasszony templom	<h4 style="margin-top:-20px">(Újpest-Megyeri templom)</h4><p><a href="http://miserend.hu/?templom=28" target="_blank">Ugrás a templom oldalára.</a></p>	images/icons/church-green.png	24,24	-12,-24
29	46.1442	18.1171	Bűnbánó Szent Mária Magdolna templom	<h4 style="margin-top:-20px">(Abaliget)</h4><p><a href="http://miserend.hu/?templom=29" target="_blank">Ugrás a templom oldalára.</a></p>	images/icons/church-green2.png	24,24	-12,-24
30	48.078	19.2923	Szentháromság-templom	<h4 style="margin-top:-20px">(Balassagyarmat)</h4><p><a href="http://miserend.hu/?templom=30" target="_blank">Ugrás a templom oldalára.</a></p>	images/icons/church-green.png	24,24	-12,-24
31	46.9536	18.2192	Szentháromság-templom	<h4 style="margin-top:-20px">(Balatonbozsoki templom)</h4><p><a href="http://miserend.hu/?templom=31" target="_blank">Ugrás a templom oldalára.</a></p>	images/icons/church-green.png	24,24	-12,-24
32	47.428	19.2287	Szent József-templom	<h4 style="margin-top:-20px">(Pestlőrinc - Csákyligeti templom)</h4><p><a href="http://miserend.hu/?templom=32" target="_blank">Ugrás a templom oldalára.</a></p>	images/icons/church-green.png	24,24	-12,-24
34	47.6071	19.1993	Szeplőtelen Fogantatás templom	<h4 style="margin-top:-20px">(Fót)</h4><p><a href="http://miserend.hu/?templom=34" target="_blank">Ugrás a templom oldalára.</a></p>	images/icons/church-green.png	24,24	-12,-24
35	47.5078	19.197	Szent József templom	<h4 style="margin-top:-20px">(Mátyásföldi templom)</h4><p><a href="http://miserend.hu/?templom=35" target="_blank">Ugrás a templom oldalára.</a></p>	images/icons/church-green.png	24,24	-12,-24
36	47.4932	19.0561	Alkantarai Szent Péter-templom	<h4 style="margin-top:-20px">(Belvárosi Ferences templom)</h4><p><a href="http://miserend.hu/?templom=36" target="_blank">Ugrás a templom oldalára.</a></p>	images/icons/church-green.png	24,24	-12,-24
37	47.5007	19.0534	Szent István-bazilika	<h4 style="margin-top:-20px">(Budapest V. kerület)</h4><p><a href="http://miserend.hu/?templom=37" target="_blank">Ugrás a templom oldalára.</a></p>	images/icons/church-green.png	24,24	-12,-24
38	47.4921	19.0519	Nagyboldogasszony templom	<h4 style="margin-top:-20px">(Belvárosi templom)</h4><p><a href="http://miserend.hu/?templom=38" target="_blank">Ugrás a templom oldalára.</a></p>	images/icons/church-green.png	24,24	-12,-24
39	47.4954	19.0533	Belvárosi Szent Anna-templom	<h4 style="margin-top:-20px">(Szervita templom)</h4><p><a href="http://miserend.hu/?templom=39" target="_blank">Ugrás a templom oldalára.</a></p>	images/icons/church-green.png	24,24	-12,-24
40	47.491	19.058	Egyetemi Kisboldogasszony templom	<h4 style="margin-top:-20px">(egyetemi templom)</h4><p><a href="http://miserend.hu/?templom=40" target="_blank">Ugrás a templom oldalára.</a></p>	images/icons/church-green.png	24,24	-12,-24
41	47.4908	19.0546	Belvárosi Szent Mihály templom	<h4 style="margin-top:-20px">(Angolkisasszonyok temploma)</h4><p><a href="http://miserend.hu/?templom=41" target="_blank">Ugrás a templom oldalára.</a></p>	images/icons/church-green.png	24,24	-12,-24
42	47.4931	19.052	Kalazanci Szent József-kápolna	<h4 style="margin-top:-20px">(Duna-parti Piarista kápolna)</h4><p><a href="http://miserend.hu/?templom=42" target="_blank">Ugrás a templom oldalára.</a></p>	images/icons/church-green.png	24,24	-12,-24
515	46.7813	18.5962	Szent Lajos király templom	<h4 style="margin-top:-20px">(Sáregres)</h4><p><a href="http://miserend.hu/?templom=515" target="_blank">Ugrás a templom oldalára.</a></p>	images/icons/church-green.png	24,24	-12,-24
45	46.5782	17.4145	Gyümölcsoltó Boldogasszony templom	<h4 style="margin-top:-20px">(Marcali)</h4><p><a href="http://miserend.hu/?templom=45" target="_blank">Ugrás a templom oldalára.</a></p>	images/icons/church-green.png	24,24	-12,-24
46	46.8456	16.8465	Mária Magdolna templom	<h4 style="margin-top:-20px">(Zalaegerszeg)</h4><p><a href="http://miserend.hu/?templom=46" target="_blank">Ugrás a templom oldalára.</a></p>	images/icons/church-green.png	24,24	-12,-24
48	47.6723	18.1813	Rózsafüzér Királynője templom	<h4 style="margin-top:-20px">(Mocsa)</h4><p><a href="http://miserend.hu/?templom=48" target="_blank">Ugrás a templom oldalára.</a></p>	images/icons/church-green.png	24,24	-12,-24
49	46.3566	17.7886	Nagyboldogasszony-székesegyház	<h4 style="margin-top:-20px">(Nagytemplom, Székesegyház)</h4><p><a href="http://miserend.hu/?templom=49" target="_blank">Ugrás a templom oldalára.</a></p>	images/icons/church-green.png	24,24	-12,-24
50	47.901	19.8138	Nagyboldogasszony templom	<h4 style="margin-top:-20px">(Mátrakeresztesi templom)</h4><p><a href="http://miserend.hu/?templom=50" target="_blank">Ugrás a templom oldalára.</a></p>	images/icons/church-green.png	24,24	-12,-24
51	47.5529	17.7604	Szent Márton-bazilika	<h4 style="margin-top:-20px">(Pannonhalma)</h4><p><a href="http://miserend.hu/?templom=51" target="_blank">Ugrás a templom oldalára.</a></p>	images/icons/church-green.png	24,24	-12,-24
52	46.077	18.2282	Gyertyaszentelő Boldogasszony-templom	<h4 style="margin-top:-20px">(Belvárosi templom, Dzsámi)</h4><p><a href="http://miserend.hu/?templom=52" target="_blank">Ugrás a templom oldalára.</a></p>	images/icons/church-green.png	24,24	-12,-24
2911	47.6038	20.7187	Szent Anna templom	<h4 style="margin-top:-20px">(Tiszaörvényi templom)</h4><p><a href="http://miserend.hu/?templom=2911" target="_blank">Ugrás a templom oldalára.</a></p>	images/icons/church-green.png	24,24	-12,-24
54	47.923	19.7015	Szentlélek Ispotály kápolna	<h4 style="margin-top:-20px">(Temetői kápolna)</h4><p><a href="http://miserend.hu/?templom=54" target="_blank">Ugrás a templom oldalára.</a></p>	images/icons/church-green.png	24,24	-12,-24
55	47.9187	19.6949	Szent Lőrinc vértanú-templom	<h4 style="margin-top:-20px">(Pásztó)</h4><p><a href="http://miserend.hu/?templom=55" target="_blank">Ugrás a templom oldalára.</a></p>	images/icons/church-green.png	24,24	-12,-24
56	47.2224	16.6146	Szent Kvirin (Szalézi) templom	<h4 style="margin-top:-20px">(Szalézi plébániatemplom)</h4><p><a href="http://miserend.hu/?templom=56" target="_blank">Ugrás a templom oldalára.</a></p>	images/icons/church-green.png	24,24	-12,-24
57	47.6046	18.2102	Szentháromság-templom	<h4 style="margin-top:-20px">(Kocsi templom)</h4><p><a href="http://miserend.hu/?templom=57" target="_blank">Ugrás a templom oldalára.</a></p>	images/icons/church-green.png	24,24	-12,-24
58	47.5469	18.9593	Szentlélek templom	<h4 style="margin-top:-20px">(Remetekertvárosi Szentlélek templom)</h4><p><a href="http://miserend.hu/?templom=58" target="_blank">Ugrás a templom oldalára.</a></p>	images/icons/church-green.png	24,24	-12,-24
59	48.1876	20.9326	Istenszülő születése-templom	<h4 style="margin-top:-20px">(Szikszói Görögkatolikus templom)</h4><p><a href="http://miserend.hu/?templom=59" target="_blank">Ugrás a templom oldalára.</a></p>	images/icons/church-green.png	24,24	-12,-24
1045	47.0647	20.1859	Kisboldogasszony-templom	<h4 style="margin-top:-20px">(Tiszavárkony)</h4><p><a href="http://miserend.hu/?templom=1045" target="_blank">Ugrás a templom oldalára.</a></p>	images/icons/church-green.png	24,24	-12,-24
61	47.4117	19.2598	Jézus Szíve-templom	<h4 style="margin-top:-20px">(Vecsés Felső-telepi templom)</h4><p><a href="http://miserend.hu/?templom=61" target="_blank">Ugrás a templom oldalára.</a></p>	images/icons/church-green.png	24,24	-12,-24
63	47.6591	19.2825	Árpád-házi Szent Erzsébet-templom	<h4 style="margin-top:-20px">(Veresegyház)</h4><p><a href="http://miserend.hu/?templom=63" target="_blank">Ugrás a templom oldalára.</a></p>	images/icons/church-green.png	24,24	-12,-24
64	47.8265	19.0353	Szent András-templom	<h4 style="margin-top:-20px">(Verőce)</h4><p><a href="http://miserend.hu/?templom=64" target="_blank">Ugrás a templom oldalára.</a></p>	images/icons/church-green.png	24,24	-12,-24
65	47.6195	18.3815	Kisboldogasszony templom	<h4 style="margin-top:-20px">(Vértesszőlős)</h4><p><a href="http://miserend.hu/?templom=65" target="_blank">Ugrás a templom oldalára.</a></p>	images/icons/church-green.png	24,24	-12,-24
66	46.8465	16.8336	Jézus Szíve-templom	<h4 style="margin-top:-20px">(Ferences templom)</h4><p><a href="http://miserend.hu/?templom=66" target="_blank">Ugrás a templom oldalára.</a></p>	images/icons/church-green.png	24,24	-12,-24
1777	48.4523	21.2403	Nagyboldogasszony Templom	<h4 style="margin-top:-20px">(Göncruszka)</h4><p><a href="http://miserend.hu/?templom=1777" target="_blank">Ugrás a templom oldalára.</a></p>	images/icons/church-green2.png	24,24	-12,-24
2590	46.5909	18.7178	Szentlélek templom	<h4 style="margin-top:-20px">(Pusztahencse)</h4><p><a href="http://miserend.hu/?templom=2590" target="_blank">Ugrás a templom oldalára.</a></p>	images/icons/church-green.png	24,24	-12,-24
69	47.5213	19.1616	Szent Mihály templom	<h4 style="margin-top:-20px">(Rákosszentmihályi Szent Mihály templom)</h4><p><a href="http://miserend.hu/?templom=69" target="_blank">Ugrás a templom oldalára.</a></p>	images/icons/church-green.png	24,24	-12,-24
70	47.5275	19.1648	Fájdalmas Szűzanya kápolna	<h4 style="margin-top:-20px">(Rákosszentmihály - Csömöri úti kápolna)</h4><p><a href="http://miserend.hu/?templom=70" target="_blank">Ugrás a templom oldalára.</a></p>	images/icons/church-green.png	24,24	-12,-24
71	47.5251	19.1801	Szent Imre templom	<h4 style="margin-top:-20px">(Rákosszentmihályi Szent Imre templom)</h4><p><a href="http://miserend.hu/?templom=71" target="_blank">Ugrás a templom oldalára.</a></p>	images/icons/church-green.png	24,24	-12,-24
72	47.5134	19.1706	Krisztus Király templom	<h4 style="margin-top:-20px">(Sashalom - Krisztus Király templom)</h4><p><a href="http://miserend.hu/?templom=72" target="_blank">Ugrás a templom oldalára.</a></p>	images/icons/church-green.png	24,24	-12,-24
73	47.5201	19.2308	Szent Mária Magdolna templom	<h4 style="margin-top:-20px">(Cinkotai templom)</h4><p><a href="http://miserend.hu/?templom=73" target="_blank">Ugrás a templom oldalára.</a></p>	images/icons/church-green.png	24,24	-12,-24
74	47.5328	19.2034	Szent Anna-templom	<h4 style="margin-top:-20px">(Árpádföldi Szent Anna-templom)</h4><p><a href="http://miserend.hu/?templom=74" target="_blank">Ugrás a templom oldalára.</a></p>	images/icons/church-green.png	24,24	-12,-24
75	46.1259	19.3314	Szent Kereszt felmagasztalása templom	<h4 style="margin-top:-20px">(Bácsalmás)</h4><p><a href="http://miserend.hu/?templom=75" target="_blank">Ugrás a templom oldalára.</a></p>	images/icons/church-green.png	24,24	-12,-24
76	46.1797	18.9518	Szent Péter és Pál apostolok templom	<h4 style="margin-top:-20px">(Belvárosi templom)</h4><p><a href="http://miserend.hu/?templom=76" target="_blank">Ugrás a templom oldalára.</a></p>	images/icons/church-green.png	24,24	-12,-24
863	46.5219	17.1254	Urunk mennybemenetele-templom	<h4 style="margin-top:-20px">(Galambok)</h4><p><a href="http://miserend.hu/?templom=863" target="_blank">Ugrás a templom oldalára.</a></p>	images/icons/church-green.png	24,24	-12,-24
77	46.1775	18.9525	Páduai Szent Antal-templom	<h4 style="margin-top:-20px">(Barátok templom)</h4><p><a href="http://miserend.hu/?templom=77" target="_blank">Ugrás a templom oldalára.</a></p>	images/icons/church-green.png	24,24	-12,-24
78	46.1997	18.9558	Szent István király-templom	<h4 style="margin-top:-20px">(Bajaszentistváni templom)</h4><p><a href="http://miserend.hu/?templom=78" target="_blank">Ugrás a templom oldalára.</a></p>	images/icons/church-green2.png	24,24	-12,-24
79	46.1893	18.9434	Szent József-templom	<h4 style="margin-top:-20px">(Baja)</h4><p><a href="http://miserend.hu/?templom=79" target="_blank">Ugrás a templom oldalára.</a></p>	images/icons/church-green.png	24,24	-12,-24
80	46.1856	18.963	Jézus Szíve-templom	<h4 style="margin-top:-20px">(Szent Szív templom)</h4><p><a href="http://miserend.hu/?templom=80" target="_blank">Ugrás a templom oldalára.</a></p>	images/icons/church-green.png	24,24	-12,-24
81	46.2981	19.3236	Szent Anna-templom	<h4 style="margin-top:-20px">(Jánoshalma)</h4><p><a href="http://miserend.hu/?templom=81" target="_blank">Ugrás a templom oldalára.</a></p>	images/icons/church-green.png	24,24	-12,-24
82	46.5299	18.9731	Nagyboldogasszony Főszékesegyház	<h4 style="margin-top:-20px">(Belvárosi templom)</h4><p><a href="http://miserend.hu/?templom=82" target="_blank">Ugrás a templom oldalára.</a></p>	images/icons/church-green.png	24,24	-12,-24
83	46.5293	18.9862	Szent Imre templom	<h4 style="margin-top:-20px">(Eperföldi templom)</h4><p><a href="http://miserend.hu/?templom=83" target="_blank">Ugrás a templom oldalára.</a></p>	images/icons/church-green.png	24,24	-12,-24
84	46.5274	18.9765	Szent István király templom	<h4 style="margin-top:-20px">(Jezsuita templom)</h4><p><a href="http://miserend.hu/?templom=84" target="_blank">Ugrás a templom oldalára.</a></p>	images/icons/church-green.png	24,24	-12,-24
85	46.5312	18.9732	Szent József templom	<h4 style="margin-top:-20px">(Zárdatemplom)</h4><p><a href="http://miserend.hu/?templom=85" target="_blank">Ugrás a templom oldalára.</a></p>	images/icons/church-green.png	24,24	-12,-24
86	46.5217	18.997	Szent Péter templom	<h4 style="margin-top:-20px">(Szőlőhegyi templom)</h4><p><a href="http://miserend.hu/?templom=86" target="_blank">Ugrás a templom oldalára.</a></p>	images/icons/church-green.png	24,24	-12,-24
87	46.8352	17.1737	Szentháromság-templom	<h4 style="margin-top:-20px">(Kecel)</h4><p><a href="http://miserend.hu/?templom=87" target="_blank">Ugrás a templom oldalára.</a></p>	images/icons/church-green.png	24,24	-12,-24
88	46.9074	19.6913	Urunk Mennybemenetele Társszékesegyház	<h4 style="margin-top:-20px">(Nagytemplom)</h4><p><a href="http://miserend.hu/?templom=88" target="_blank">Ugrás a templom oldalára.</a></p>	images/icons/church-green.png	24,24	-12,-24
89	46.92	19.6725	Szent Család templom	<h4 style="margin-top:-20px">(Széchenyivárosi templom)</h4><p><a href="http://miserend.hu/?templom=89" target="_blank">Ugrás a templom oldalára.</a></p>	images/icons/church-green.png	24,24	-12,-24
90	46.903	19.6965	Árpád-házi Szent Erzsébet-templom	<h4 style="margin-top:-20px">(Czollner téri templom)</h4><p><a href="http://miserend.hu/?templom=90" target="_blank">Ugrás a templom oldalára.</a></p>	images/icons/church-green.png	24,24	-12,-24
91	46.9067	19.6926	Szent Miklós-templom	<h4 style="margin-top:-20px">(Barátok temploma)</h4><p><a href="http://miserend.hu/?templom=91" target="_blank">Ugrás a templom oldalára.</a></p>	images/icons/church-green.png	24,24	-12,-24
92	46.9105	19.692	Szentháromság-templom	<h4 style="margin-top:-20px">(Piarista templom)</h4><p><a href="http://miserend.hu/?templom=92" target="_blank">Ugrás a templom oldalára.</a></p>	images/icons/church-green.png	24,24	-12,-24
93	46.7122	19.8519	Sarlós Boldogasszony-templom	<h4 style="margin-top:-20px">(Ótemplom)</h4><p><a href="http://miserend.hu/?templom=93" target="_blank">Ugrás a templom oldalára.</a></p>	images/icons/church-green.png	24,24	-12,-24
94	46.7111	19.8452	Szent István király templom	<h4 style="margin-top:-20px">(Újtemplom)</h4><p><a href="http://miserend.hu/?templom=94" target="_blank">Ugrás a templom oldalára.</a></p>	images/icons/church-green.png	24,24	-12,-24
95	46.4268	19.4835	Szent Péter és Pál apostolok templom	<h4 style="margin-top:-20px">(Alsóvárosi templom)</h4><p><a href="http://miserend.hu/?templom=95" target="_blank">Ugrás a templom oldalára.</a></p>	images/icons/church-green.png	24,24	-12,-24
96	46.4369	19.4788	Jézus Szíve templom	<h4 style="margin-top:-20px">(Felsővárosi templom)</h4><p><a href="http://miserend.hu/?templom=96" target="_blank">Ugrás a templom oldalára.</a></p>	images/icons/church-green.png	24,24	-12,-24
97	46.4915	19.7366	Kisboldogasszony templom	<h4 style="margin-top:-20px">(Kiskunmajsa)</h4><p><a href="http://miserend.hu/?templom=97" target="_blank">Ugrás a templom oldalára.</a></p>	images/icons/church-green.png	24,24	-12,-24
98	47.0266	19.5576	Szent Lajos templom	<h4 style="margin-top:-20px">(A Turini Lepel és a Koronázási Ékszerek másolatainak temploma)</h4><p><a href="http://miserend.hu/?templom=98" target="_blank">Ugrás a templom oldalára.</a></p>	images/icons/church-green.png	24,24	-12,-24
99	47.1966	18.4351	Krisztus Király templom	<h4 style="margin-top:-20px">(Almássy-telepi templom)</h4><p><a href="http://miserend.hu/?templom=99" target="_blank">Ugrás a templom oldalára.</a></p>	images/icons/church-green.png	24,24	-12,-24
100	47.1904	18.4099	Szent István király-bazilika	<h4 style="margin-top:-20px">(bazilika)</h4><p><a href="http://miserend.hu/?templom=100" target="_blank">Ugrás a templom oldalára.</a></p>	images/icons/church-green.png	24,24	-12,-24
101	47.1992	18.3938	Szentháromság temetőkápolna	<h4 style="margin-top:-20px">(Hosszútemetői kápolna)</h4><p><a href="http://miserend.hu/?templom=101" target="_blank">Ugrás a templom oldalára.</a></p>	images/icons/church-green.png	24,24	-12,-24
102	47.1912	18.409	Szent Imre-templom	<h4 style="margin-top:-20px">(Barátok temploma)</h4><p><a href="http://miserend.hu/?templom=102" target="_blank">Ugrás a templom oldalára.</a></p>	images/icons/church-green.png	24,24	-12,-24
3385			Szent Kereszt felmagasztalása  templom	<h4 style="margin-top:-20px">(Rascruci)</h4><p><a href="http://miserend.hu/?templom=3385" target="_blank">Ugrás a templom oldalára.</a></p>	images/icons/church-red.png	24,24	-12,-24
103	47.1894	18.4117	Kármelhegyi Boldogasszony templom	<h4 style="margin-top:-20px">(Kármelita templom - Szemináriumi templom)</h4><p><a href="http://miserend.hu/?templom=103" target="_blank">Ugrás a templom oldalára.</a></p>	images/icons/church-green.png	24,24	-12,-24
104	47.5248	19.0673	Szent Sebestyén vértanú templom	<h4 style="margin-top:-20px">(Felsővárosi templom)</h4><p><a href="http://miserend.hu/?templom=104" target="_blank">Ugrás a templom oldalára.</a></p>	images/icons/church-green.png	24,24	-12,-24
105	47.2012	18.4213	Feltámadás temetőkápolna	<h4 style="margin-top:-20px">(Csutora temetői kápolna)</h4><p><a href="http://miserend.hu/?templom=105" target="_blank">Ugrás a templom oldalára.</a></p>	images/icons/church-green.png	24,24	-12,-24
106	47.169	18.4096	Szent Kristóf-templom	<h4 style="margin-top:-20px">(Maroshegyi templom)</h4><p><a href="http://miserend.hu/?templom=106" target="_blank">Ugrás a templom oldalára.</a></p>	images/icons/church-green.png	24,24	-12,-24
3386	46.8741	23.2337	Kisboldogasszony templom	<h4 style="margin-top:-20px">(Aghires)</h4><p><a href="http://miserend.hu/?templom=3386" target="_blank">Ugrás a templom oldalára.</a></p>	images/icons/church-green2.png	24,24	-12,-24
107	47.1926	18.409	Nagyboldogasszony - Nepomuki Szent János templom	<h4 style="margin-top:-20px">(Ciszter templom)</h4><p><a href="http://miserend.hu/?templom=107" target="_blank">Ugrás a templom oldalára.</a></p>	images/icons/church-green.png	24,24	-12,-24
3387	46.8473	23.1918	Szent Mihály arkangyal templom	<h4 style="margin-top:-20px">(Leghia)</h4><p><a href="http://miserend.hu/?templom=3387" target="_blank">Ugrás a templom oldalára.</a></p>	images/icons/church-green2.png	24,24	-12,-24
108	47.1951	18.4471	Magyarok Nagyasszonya  templom	<h4 style="margin-top:-20px">(Öreghegyi templom)</h4><p><a href="http://miserend.hu/?templom=108" target="_blank">Ugrás a templom oldalára.</a></p>	images/icons/church-green.png	24,24	-12,-24
109	47.2034	18.4676	Szent Donát kápolna	<h4 style="margin-top:-20px">(Szőlőhegyi kápolna)</h4><p><a href="http://miserend.hu/?templom=109" target="_blank">Ugrás a templom oldalára.</a></p>	images/icons/church-green.png	24,24	-12,-24
110	47.1927	18.4361	Szent György kórházkápolna	<h4 style="margin-top:-20px">(Kórházi kápolna)</h4><p><a href="http://miserend.hu/?templom=110" target="_blank">Ugrás a templom oldalára.</a></p>	images/icons/church-green2.png	24,24	-12,-24
111	47.2028	18.383	Fatimai Boldogasszony templom	<h4 style="margin-top:-20px">(Szárazréti templom)</h4><p><a href="http://miserend.hu/?templom=111" target="_blank">Ugrás a templom oldalára.</a></p>	images/icons/church-green.png	24,24	-12,-24
3389	46.8453	24.1619	Szentháromság templom	<h4 style="margin-top:-20px">(Catina)</h4><p><a href="http://miserend.hu/?templom=3389" target="_blank">Ugrás a templom oldalára.</a></p>	images/icons/church-green2.png	24,24	-12,-24
112	47.1843	18.4191	Jó Pásztor-templom	<h4 style="margin-top:-20px">(Vasútvidéki Prohászka templom)</h4><p><a href="http://miserend.hu/?templom=112" target="_blank">Ugrás a templom oldalára.</a></p>	images/icons/church-green.png	24,24	-12,-24
3390	46.7536	24.1667	Szent Kereszt felmagasztalása  templom	<h4 style="margin-top:-20px">(Nagysármás)</h4><p><a href="http://miserend.hu/?templom=3390" target="_blank">Ugrás a templom oldalára.</a></p>	images/icons/church-red.png	24,24	-12,-24
113	47.1953	18.4168	Jézus Szíve-templom	<h4 style="margin-top:-20px">(Vizivárosi templom)</h4><p><a href="http://miserend.hu/?templom=113" target="_blank">Ugrás a templom oldalára.</a></p>	images/icons/church-green.png	24,24	-12,-24
3391	46.9794	23.6013	Jézus Szent Szíve templom	<h4 style="margin-top:-20px">(chidea)</h4><p><a href="http://miserend.hu/?templom=3391" target="_blank">Ugrás a templom oldalára.</a></p>	images/icons/church-green2.png	24,24	-12,-24
114	47.6682	19.0754	Keresztelő Szent János-templom	<h4 style="margin-top:-20px">(plébánia templom)</h4><p><a href="http://miserend.hu/?templom=114" target="_blank">Ugrás a templom oldalára.</a></p>	images/icons/church-green.png	24,24	-12,-24
116	47.69	17.6358	Szentháromság templom	<h4 style="margin-top:-20px">(Német Ispita templom)</h4><p><a href="http://miserend.hu/?templom=116" target="_blank">Ugrás a templom oldalára.</a></p>	images/icons/church-green.png	24,24	-12,-24
117	47.689	17.6354	Szent Anna-templom	<h4 style="margin-top:-20px">(Magyar Ispita templom)</h4><p><a href="http://miserend.hu/?templom=117" target="_blank">Ugrás a templom oldalára.</a></p>	images/icons/church-green2.png	24,24	-12,-24
118	47.6924	17.6291	Szentháromság-templom	<h4 style="margin-top:-20px">(Révfalui templom)</h4><p><a href="http://miserend.hu/?templom=118" target="_blank">Ugrás a templom oldalára.</a></p>	images/icons/church-green.png	24,24	-12,-24
119	47.7643	17.6874	Szent György-templom	<h4 style="margin-top:-20px">(Nagybajcs)</h4><p><a href="http://miserend.hu/?templom=119" target="_blank">Ugrás a templom oldalára.</a></p>	images/icons/church-green.png	24,24	-12,-24
120	47.7519	17.6504	Mindenszentek temploma	<h4 style="margin-top:-20px">(Vámosszabadi)</h4><p><a href="http://miserend.hu/?templom=120" target="_blank">Ugrás a templom oldalára.</a></p>	images/icons/church-green.png	24,24	-12,-24
121	47.7457	17.6793	Rózsafüzér Királynéja-templom	<h4 style="margin-top:-20px">(Kisbajcs)</h4><p><a href="http://miserend.hu/?templom=121" target="_blank">Ugrás a templom oldalára.</a></p>	images/icons/church-green.png	24,24	-12,-24
122	46.7909	17.1851	Szentlélek-templom	<h4 style="margin-top:-20px">(Kék templom)</h4><p><a href="http://miserend.hu/?templom=122" target="_blank">Ugrás a templom oldalára.</a></p>	images/icons/church-green.png	24,24	-12,-24
123	46.8019	17.1895	Jézus Szíve-templom	<h4 style="margin-top:-20px">(Fradi templom, Egregyi templom)</h4><p><a href="http://miserend.hu/?templom=123" target="_blank">Ugrás a templom oldalára.</a></p>	images/icons/church-green.png	24,24	-12,-24
124	46.7745	17.1704	Szent Kereszt felmagasztalása-templom	<h4 style="margin-top:-20px">(Alsópáhok)</h4><p><a href="http://miserend.hu/?templom=124" target="_blank">Ugrás a templom oldalára.</a></p>	images/icons/church-green.png	24,24	-12,-24
125	46.7699	17.2953	Havas Boldogasszony-kápolna	<h4 style="margin-top:-20px">(Diási templom)</h4><p><a href="http://miserend.hu/?templom=125" target="_blank">Ugrás a templom oldalára.</a></p>	images/icons/church-green.png	24,24	-12,-24
126	46.7741	17.2832	Szent Ilona-kápolna	<h4 style="margin-top:-20px">(Gyenesi kápolna)</h4><p><a href="http://miserend.hu/?templom=126" target="_blank">Ugrás a templom oldalára.</a></p>	images/icons/church-green.png	24,24	-12,-24
127	46.7646	17.2433	Magyarok Nagyasszonya templom	<h4 style="margin-top:-20px">(Főtéri templom)</h4><p><a href="http://miserend.hu/?templom=127" target="_blank">Ugrás a templom oldalára.</a></p>	images/icons/church-green.png	24,24	-12,-24
133	47.7369	17.8228	Szent Péter és Pál templom	<h4 style="margin-top:-20px">(Gönyű)</h4><p><a href="http://miserend.hu/?templom=133" target="_blank">Ugrás a templom oldalára.</a></p>	images/icons/church-green.png	24,24	-12,-24
131	47.6946	17.5402	Szent József templom	<h4 style="margin-top:-20px">(Abda)</h4><p><a href="http://miserend.hu/?templom=131" target="_blank">Ugrás a templom oldalára.</a></p>	images/icons/church-green.png	24,24	-12,-24
132	47.6811	17.5046	Szent Bertalan templom	<h4 style="margin-top:-20px">(Börcs)</h4><p><a href="http://miserend.hu/?templom=132" target="_blank">Ugrás a templom oldalára.</a></p>	images/icons/church-green.png	24,24	-12,-24
134	47.6916	17.6575	Jézus Szive-templom	<h4 style="margin-top:-20px">(Gyárvárosi templom)</h4><p><a href="http://miserend.hu/?templom=134" target="_blank">Ugrás a templom oldalára.</a></p>	images/icons/church-green.png	24,24	-12,-24
135	47.687	17.6312	Szeplőtelen Fogantatás és Szent István király-templom	<h4 style="margin-top:-20px">(Kármelita templom - Kármelhegyi Boldogasszony templom)</h4><p><a href="http://miserend.hu/?templom=135" target="_blank">Ugrás a templom oldalára.</a></p>	images/icons/church-green.png	24,24	-12,-24
136	47.6783	17.6321	Szent Kamillus templom	<h4 style="margin-top:-20px">(Nádorvárosi templom)</h4><p><a href="http://miserend.hu/?templom=136" target="_blank">Ugrás a templom oldalára.</a></p>	images/icons/church-green.png	24,24	-12,-24
137	47.6915	17.5976	Jézus Szíve templom	<h4 style="margin-top:-20px">(Pinnyédi templom)</h4><p><a href="http://miserend.hu/?templom=137" target="_blank">Ugrás a templom oldalára.</a></p>	images/icons/church-green.png	24,24	-12,-24
138	47.6651	17.6637	Szent Anna templom	<h4 style="margin-top:-20px">(Szabadhegyi templom)</h4><p><a href="http://miserend.hu/?templom=138" target="_blank">Ugrás a templom oldalára.</a></p>	images/icons/church-green.png	24,24	-12,-24
139	47.688	17.6347	Loyolai Szent Ignác-templom	<h4 style="margin-top:-20px">(Bencés templom)</h4><p><a href="http://miserend.hu/?templom=139" target="_blank">Ugrás a templom oldalára.</a></p>	images/icons/church-green.png	24,24	-12,-24
140	47.682	17.6018	Szent Erzsébet-templom	<h4 style="margin-top:-20px">(Győr)</h4><p><a href="http://miserend.hu/?templom=140" target="_blank">Ugrás a templom oldalára.</a></p>	images/icons/church-green.png	24,24	-12,-24
141	46.7701	17.2516	Kis Szent Teréz-bazilika	<h4 style="margin-top:-20px">(Kármelita templom)</h4><p><a href="http://miserend.hu/?templom=141" target="_blank">Ugrás a templom oldalára.</a></p>	images/icons/church-green.png	24,24	-12,-24
142	47.6322	19.1491	Szent Imre-templom	<h4 style="margin-top:-20px">(Alagi templom)</h4><p><a href="http://miserend.hu/?templom=142" target="_blank">Ugrás a templom oldalára.</a></p>	images/icons/church-green.png	24,24	-12,-24
143	47.6442	19.1309	Jézus Szíve templom	<h4 style="margin-top:-20px">(Dunakeszi-Gyártelepi templom)</h4><p><a href="http://miserend.hu/?templom=143" target="_blank">Ugrás a templom oldalára.</a></p>	images/icons/church-green.png	24,24	-12,-24
144	47.632	19.1307	Szent Mihály-templom	<h4 style="margin-top:-20px">(Dunakeszi)</h4><p><a href="http://miserend.hu/?templom=144" target="_blank">Ugrás a templom oldalára.</a></p>	images/icons/church-green.png	24,24	-12,-24
5177			Misézőhely	<h4 style="margin-top:-20px">(épülő görögkatölikus templom)</h4><p><a href="http://miserend.hu/?templom=5177" target="_blank">Ugrás a templom oldalára.</a></p>	images/icons/church-red.png	24,24	-12,-24
145	47.624	19.139	Nepomuki Szent János kápolna	<h4 style="margin-top:-20px">(Lovaregyleti kápolna)</h4><p><a href="http://miserend.hu/?templom=145" target="_blank">Ugrás a templom oldalára.</a></p>	images/icons/church-green.png	24,24	-12,-24
146	47.6824	19.1335	Szent István király-templom	<h4 style="margin-top:-20px">(Alsógödi templom)</h4><p><a href="http://miserend.hu/?templom=146" target="_blank">Ugrás a templom oldalára.</a></p>	images/icons/church-green.png	24,24	-12,-24
147	47.7037	19.1483	Jézus Szíve-templom	<h4 style="margin-top:-20px">(Felsőgödi templom)</h4><p><a href="http://miserend.hu/?templom=147" target="_blank">Ugrás a templom oldalára.</a></p>	images/icons/church-green.png	24,24	-12,-24
4439	47.707	19.1474	Jézus Szíve kápolna	<h4 style="margin-top:-20px">(Göd-Újtelepi Bócsai kápolna)</h4><p><a href="http://miserend.hu/?templom=4439" target="_blank">Ugrás a templom oldalára.</a></p>	images/icons/church-green2.png	24,24	-12,-24
148	47.74	19.2874	Magyarok Nagyasszonya templom	<h4 style="margin-top:-20px">(Kisnémedi lelkészség)</h4><p><a href="http://miserend.hu/?templom=148" target="_blank">Ugrás a templom oldalára.</a></p>	images/icons/church-green2.png	24,24	-12,-24
149	47.8012	19.1778	Árpád-házi Szent Erzsébet templom	<h4 style="margin-top:-20px">(Kosd)</h4><p><a href="http://miserend.hu/?templom=149" target="_blank">Ugrás a templom oldalára.</a></p>	images/icons/church-green.png	24,24	-12,-24
150	47.7411	19.3153	Szent Márton-templom	<h4 style="margin-top:-20px">(Püspökszilágy)</h4><p><a href="http://miserend.hu/?templom=150" target="_blank">Ugrás a templom oldalára.</a></p>	images/icons/church-green2.png	24,24	-12,-24
151	47.7926	19.2178	Kisboldogasszony templom	<h4 style="margin-top:-20px">(Rád)</h4><p><a href="http://miserend.hu/?templom=151" target="_blank">Ugrás a templom oldalára.</a></p>	images/icons/church-green.png	24,24	-12,-24
152	47.8016	19.2477	Urunk színeváltozása-templom	<h4 style="margin-top:-20px">(Penc)</h4><p><a href="http://miserend.hu/?templom=152" target="_blank">Ugrás a templom oldalára.</a></p>	images/icons/church-green.png	24,24	-12,-24
153	47.7156	19.1888	Mária Magdolna-templom	<h4 style="margin-top:-20px">(Sződ)</h4><p><a href="http://miserend.hu/?templom=153" target="_blank">Ugrás a templom oldalára.</a></p>	images/icons/church-green.png	24,24	-12,-24
154	47.7372	19.1868	Szent Jeromos, Szent Kristóf és Boldog Vác remete-kápolna	<h4 style="margin-top:-20px">(Csörög)</h4><p><a href="http://miserend.hu/?templom=154" target="_blank">Ugrás a templom oldalára.</a></p>	images/icons/church-green.png	24,24	-12,-24
155	47.7329	19.1487	Nagyboldogasszony-templom	<h4 style="margin-top:-20px">(Sződliget)</h4><p><a href="http://miserend.hu/?templom=155" target="_blank">Ugrás a templom oldalára.</a></p>	images/icons/church-green.png	24,24	-12,-24
156	47.7757	19.1311	Nagyboldogasszony-székesegyház	<h4 style="margin-top:-20px">(Nagytemplom Alsóvárosi)</h4><p><a href="http://miserend.hu/?templom=156" target="_blank">Ugrás a templom oldalára.</a></p>	images/icons/church-green.png	24,24	-12,-24
157	47.7761	19.1287	Szent Anna-templom	<h4 style="margin-top:-20px">(Piarista templom)</h4><p><a href="http://miserend.hu/?templom=157" target="_blank">Ugrás a templom oldalára.</a></p>	images/icons/church-green.png	24,24	-12,-24
158	47.7723	19.1311	Szent Kereszt-templom	<h4 style="margin-top:-20px">(Barátok temploma)</h4><p><a href="http://miserend.hu/?templom=158" target="_blank">Ugrás a templom oldalára.</a></p>	images/icons/church-green.png	24,24	-12,-24
159	47.7642	19.1394	Hétkápolna	<h4 style="margin-top:-20px">(Vác)</h4><p><a href="http://miserend.hu/?templom=159" target="_blank">Ugrás a templom oldalára.</a></p>	images/icons/church-green.png	24,24	-12,-24
160	47.7894	19.1395	Jézus Szíve-templom	<h4 style="margin-top:-20px">(Deákvári templom)</h4><p><a href="http://miserend.hu/?templom=160" target="_blank">Ugrás a templom oldalára.</a></p>	images/icons/church-green.png	24,24	-12,-24
4993			Gombási kápolna	<h4 style="margin-top:-20px">(Vác)</h4><p><a href="http://miserend.hu/?templom=4993" target="_blank">Ugrás a templom oldalára.</a></p>	images/icons/church-red2.png	24,24	-12,-24
161	47.7778	19.1279	Győzelemről nevezett Szűz Mária  templom	<h4 style="margin-top:-20px">(Fehérek temploma)</h4><p><a href="http://miserend.hu/?templom=161" target="_blank">Ugrás a templom oldalára.</a></p>	images/icons/church-green.png	24,24	-12,-24
162	47.7255	19.2567	Szent István király-templom	<h4 style="margin-top:-20px">(Váchartyán)</h4><p><a href="http://miserend.hu/?templom=162" target="_blank">Ugrás a templom oldalára.</a></p>	images/icons/church-green2.png	24,24	-12,-24
163	47.7503	19.2083	Szent Anna-templom	<h4 style="margin-top:-20px">(Vácduka)</h4><p><a href="http://miserend.hu/?templom=163" target="_blank">Ugrás a templom oldalára.</a></p>	images/icons/church-green.png	24,24	-12,-24
164	47.7098	19.2343	Szentháromság-templom	<h4 style="margin-top:-20px">(Vácrátót)</h4><p><a href="http://miserend.hu/?templom=164" target="_blank">Ugrás a templom oldalára.</a></p>	images/icons/church-green.png	24,24	-12,-24
165	47.6541	19.4717	Szentháromság-templom	<h4 style="margin-top:-20px">(Aszód)</h4><p><a href="http://miserend.hu/?templom=165" target="_blank">Ugrás a templom oldalára.</a></p>	images/icons/church-green.png	24,24	-12,-24
166	47.6532	19.4379	Jézus Szíve-templom	<h4 style="margin-top:-20px">(Domony)</h4><p><a href="http://miserend.hu/?templom=166" target="_blank">Ugrás a templom oldalára.</a></p>	images/icons/church-green.png	24,24	-12,-24
167	47.635	19.491	Szent András templom	<h4 style="margin-top:-20px">(Bag)</h4><p><a href="http://miserend.hu/?templom=167" target="_blank">Ugrás a templom oldalára.</a></p>	images/icons/church-green2.png	24,24	-12,-24
168	47.5987	19.6965	Szeplőtelen fogantatás-templom	<h4 style="margin-top:-20px">(Boldog)</h4><p><a href="http://miserend.hu/?templom=168" target="_blank">Ugrás a templom oldalára.</a></p>	images/icons/church-green.png	24,24	-12,-24
4968	47.5717	19.0869	Jézus Szíve templom	<h4 style="margin-top:-20px">(Újpesti Jézus Szíve templomigazgatóság, Baross utcai templom)</h4><p><a href="http://miserend.hu/?templom=4968" target="_blank">Ugrás a templom oldalára.</a></p>	images/icons/church-green2.png	24,24	-12,-24
169	47.6221	19.5554	Szent Miklós templom	<h4 style="margin-top:-20px">(Galgahévíz)</h4><p><a href="http://miserend.hu/?templom=169" target="_blank">Ugrás a templom oldalára.</a></p>	images/icons/church-green.png	24,24	-12,-24
170	47.6958	19.3864	Szent Kereszt felmagasztalása templom	<h4 style="margin-top:-20px">(Galgamácsa)</h4><p><a href="http://miserend.hu/?templom=170" target="_blank">Ugrás a templom oldalára.</a></p>	images/icons/church-green.png	24,24	-12,-24
171	47.6781	19.3632	Kisboldogasszony  templom	<h4 style="margin-top:-20px">(Vácegres)</h4><p><a href="http://miserend.hu/?templom=171" target="_blank">Ugrás a templom oldalára.</a></p>	images/icons/church-green.png	24,24	-12,-24
172	47.7047	19.3495	Szent András templom	<h4 style="margin-top:-20px">(Váckisújfalu)</h4><p><a href="http://miserend.hu/?templom=172" target="_blank">Ugrás a templom oldalára.</a></p>	images/icons/church-green2.png	24,24	-12,-24
173	47.6667	19.6839	Szent Adalbert templom	<h4 style="margin-top:-20px">(Belvárosi templom)</h4><p><a href="http://miserend.hu/?templom=173" target="_blank">Ugrás a templom oldalára.</a></p>	images/icons/church-green.png	24,24	-12,-24
175	47.6657	19.6638	Szent István király-templom	<h4 style="margin-top:-20px">(Hatvan-Újvárosi templom)</h4><p><a href="http://miserend.hu/?templom=175" target="_blank">Ugrás a templom oldalára.</a></p>	images/icons/church-green.png	24,24	-12,-24
5155	47.8277	20.055	Kisboldogasszony-kápolna	<h4 style="margin-top:-20px">(Markaz)</h4><p><a href="http://miserend.hu/?templom=5155" target="_blank">Ugrás a templom oldalára.</a></p>	images/icons/church-green2.png	24,24	-12,-24
176	47.709	19.6381	Mindenszentek templom	<h4 style="margin-top:-20px">(Heréd)</h4><p><a href="http://miserend.hu/?templom=176" target="_blank">Ugrás a templom oldalára.</a></p>	images/icons/church-green2.png	24,24	-12,-24
177	47.6341	19.5224	Szent Márton-templom	<h4 style="margin-top:-20px">(Hévízgyörk)</h4><p><a href="http://miserend.hu/?templom=177" target="_blank">Ugrás a templom oldalára.</a></p>	images/icons/church-green2.png	24,24	-12,-24
5172			Mindenszentek-templom	<h4 style="margin-top:-20px">(Nyíregyháza-Sóstóhegyi görögkatolikus templom)</h4><p><a href="http://miserend.hu/?templom=5172" target="_blank">Ugrás a templom oldalára.</a></p>	images/icons/church-red.png	24,24	-12,-24
178	47.6319	19.5189	Szent József-templom	<h4 style="margin-top:-20px">(Hévízgyörk)</h4><p><a href="http://miserend.hu/?templom=178" target="_blank">Ugrás a templom oldalára.</a></p>	images/icons/church-green.png	24,24	-12,-24
188	46.8848	17.2268	Szent Kozma és Damján templom	<h4 style="margin-top:-20px">(Zalaszántó)</h4><p><a href="http://miserend.hu/?templom=188" target="_blank">Ugrás a templom oldalára.</a></p>	images/icons/church-green.png	24,24	-12,-24
181	47.8263	17.4947	Szent Rókus templom	<h4 style="margin-top:-20px">(Rárói templom)</h4><p><a href="http://miserend.hu/?templom=181" target="_blank">Ugrás a templom oldalára.</a></p>	images/icons/church-green.png	24,24	-12,-24
182	47.8263	17.4944	Szent András templom	<h4 style="margin-top:-20px">(Ásványi templom)</h4><p><a href="http://miserend.hu/?templom=182" target="_blank">Ugrás a templom oldalára.</a></p>	images/icons/church-green.png	24,24	-12,-24
183	47.8512	17.427	Szent József templom	<h4 style="margin-top:-20px">(Darnózseli)</h4><p><a href="http://miserend.hu/?templom=183" target="_blank">Ugrás a templom oldalára.</a></p>	images/icons/church-green.png	24,24	-12,-24
184	47.9657	17.2875	Szent Kereszt felmagasztalása templom	<h4 style="margin-top:-20px">(Dunakiliti)</h4><p><a href="http://miserend.hu/?templom=184" target="_blank">Ugrás a templom oldalára.</a></p>	images/icons/church-green.png	24,24	-12,-24
185	47.7696	17.5456	Havas Boldogasszony templom	<h4 style="margin-top:-20px">(Dunaszeg)</h4><p><a href="http://miserend.hu/?templom=185" target="_blank">Ugrás a templom oldalára.</a></p>	images/icons/church-green.png	24,24	-12,-24
186	47.7762	17.5014	Szent Péter és Pál templom	<h4 style="margin-top:-20px">(Dunaszentpál)</h4><p><a href="http://miserend.hu/?templom=186" target="_blank">Ugrás a templom oldalára.</a></p>	images/icons/church-green.png	24,24	-12,-24
187	47.9424	17.3658	Jézus Szíve templom	<h4 style="margin-top:-20px">(Dunasziget)</h4><p><a href="http://miserend.hu/?templom=187" target="_blank">Ugrás a templom oldalára.</a></p>	images/icons/church-green.png	24,24	-12,-24
189	46.8682	17.2972	Szent Domonkos-templom	<h4 style="margin-top:-20px">(Várvölgy)</h4><p><a href="http://miserend.hu/?templom=189" target="_blank">Ugrás a templom oldalára.</a></p>	images/icons/church-green.png	24,24	-12,-24
190	46.8352	17.1737	Szent Anna-templom	<h4 style="margin-top:-20px">(Karmacs)</h4><p><a href="http://miserend.hu/?templom=190" target="_blank">Ugrás a templom oldalára.</a></p>	images/icons/church-green.png	24,24	-12,-24
191	46.8433	17.2215	Szent Lukács-templom	<h4 style="margin-top:-20px">(Rezi)</h4><p><a href="http://miserend.hu/?templom=191" target="_blank">Ugrás a templom oldalára.</a></p>	images/icons/church-green.png	24,24	-12,-24
350	47.479	18.8299	Szűz Mária neve-templom	<h4 style="margin-top:-20px">(Torbágyi templom)</h4><p><a href="http://miserend.hu/?templom=350" target="_blank">Ugrás a templom oldalára.</a></p>	images/icons/church-green.png	24,24	-12,-24
192	47.1216	18.862	Sarlós Boldogasszony-templom	<h4 style="margin-top:-20px">(Adony)</h4><p><a href="http://miserend.hu/?templom=192" target="_blank">Ugrás a templom oldalára.</a></p>	images/icons/church-green2.png	24,24	-12,-24
193	46.8081	18.6875	Szent Imre-templom	<h4 style="margin-top:-20px">(Alap)</h4><p><a href="http://miserend.hu/?templom=193" target="_blank">Ugrás a templom oldalára.</a></p>	images/icons/church-green.png	24,24	-12,-24
194	47.4285	18.6028	Jézus Szíve-templom	<h4 style="margin-top:-20px">(Alcsútdoboz)</h4><p><a href="http://miserend.hu/?templom=194" target="_blank">Ugrás a templom oldalára.</a></p>	images/icons/church-green.png	24,24	-12,-24
196	47.3142	18.1863	Szent Vendel-templom	<h4 style="margin-top:-20px">(Balinka)</h4><p><a href="http://miserend.hu/?templom=196" target="_blank">Ugrás a templom oldalára.</a></p>	images/icons/church-green.png	24,24	-12,-24
195	47.195	18.6052	Szent István király-templom	<h4 style="margin-top:-20px">(Agárd-Fürdőtelepi templom)</h4><p><a href="http://miserend.hu/?templom=195" target="_blank">Ugrás a templom oldalára.</a></p>	images/icons/church-green.png	24,24	-12,-24
197	47.1933	18.8008	Magyarok Nagyasszonya-templom	<h4 style="margin-top:-20px">(Besnyő)</h4><p><a href="http://miserend.hu/?templom=197" target="_blank">Ugrás a templom oldalára.</a></p>	images/icons/church-green.png	24,24	-12,-24
198	47.4651	18.8081	Szent Anna-templom	<h4 style="margin-top:-20px">(Biai templom)</h4><p><a href="http://miserend.hu/?templom=198" target="_blank">Ugrás a templom oldalára.</a></p>	images/icons/church-green.png	24,24	-12,-24
199	47.4908	18.6366	Szentháromság-templom	<h4 style="margin-top:-20px">(Bicske)</h4><p><a href="http://miserend.hu/?templom=199" target="_blank">Ugrás a templom oldalára.</a></p>	images/icons/church-green.png	24,24	-12,-24
201	46.6485	16.9239	Antióchiai Szent Margit templom	<h4 style="margin-top:-20px">(Hahót)</h4><p><a href="http://miserend.hu/?templom=201" target="_blank">Ugrás a templom oldalára.</a></p>	images/icons/church-green.png	24,24	-12,-24
200	46.7847	17.1577	Szent Kereszt megtalálása-templom	<h4 style="margin-top:-20px">(Felsőpáhok)</h4><p><a href="http://miserend.hu/?templom=200" target="_blank">Ugrás a templom oldalára.</a></p>	images/icons/church-green.png	24,24	-12,-24
3047	47.7781	22.0617	Szent István templom	<h4 style="margin-top:-20px">(Nyírbogát)</h4><p><a href="http://miserend.hu/?templom=3047" target="_blank">Ugrás a templom oldalára.</a></p>	images/icons/church-green2.png	24,24	-12,-24
203	46.7607	17.1556	Magyarok Nagyasszonya-kápolna	<h4 style="margin-top:-20px">(Alsópáhok)</h4><p><a href="http://miserend.hu/?templom=203" target="_blank">Ugrás a templom oldalára.</a></p>	images/icons/church-green.png	24,24	-12,-24
204	47.3215	18.2366	Segítő Szűz Mária-templom	<h4 style="margin-top:-20px">(Bodajk)</h4><p><a href="http://miserend.hu/?templom=204" target="_blank">Ugrás a templom oldalára.</a></p>	images/icons/church-green.png	24,24	-12,-24
205	46.8232	17.1443	Szent Péter és Pál-templom	<h4 style="margin-top:-20px">(Nemesbük)</h4><p><a href="http://miserend.hu/?templom=205" target="_blank">Ugrás a templom oldalára.</a></p>	images/icons/church-green.png	24,24	-12,-24
206	46.723	17.0092	Keresztelő Szent János-templom	<h4 style="margin-top:-20px">(Pacsa)</h4><p><a href="http://miserend.hu/?templom=206" target="_blank">Ugrás a templom oldalára.</a></p>	images/icons/church-green.png	24,24	-12,-24
207	46.7243	17.1712	Keresztelő Szent János templom	<h4 style="margin-top:-20px">(Sármellék)</h4><p><a href="http://miserend.hu/?templom=207" target="_blank">Ugrás a templom oldalára.</a></p>	images/icons/church-green.png	24,24	-12,-24
208	46.7589	17.1303	Szent György-templom	<h4 style="margin-top:-20px">(Szentgyörgyvár)</h4><p><a href="http://miserend.hu/?templom=208" target="_blank">Ugrás a templom oldalára.</a></p>	images/icons/church-green.png	24,24	-12,-24
209	47.5096	18.9281	Havas Boldogasszony-templom	<h4 style="margin-top:-20px">(Budakeszi)</h4><p><a href="http://miserend.hu/?templom=209" target="_blank">Ugrás a templom oldalára.</a></p>	images/icons/church-green.png	24,24	-12,-24
210	46.7381	17.105	Szent Adorján és Szent Őrangyalok templom	<h4 style="margin-top:-20px">(Zalaapáti)</h4><p><a href="http://miserend.hu/?templom=210" target="_blank">Ugrás a templom oldalára.</a></p>	images/icons/church-green.png	24,24	-12,-24
211	47.1685	18.5185	Páduai Szent Antal-kápolna	<h4 style="margin-top:-20px">(Börgöndpusztai kápolna)</h4><p><a href="http://miserend.hu/?templom=211" target="_blank">Ugrás a templom oldalára.</a></p>	images/icons/church-green2.png	24,24	-12,-24
5153	46.8657	17.528	Bácsi-kápolna	<h4 style="margin-top:-20px">(Káptalantóti)</h4><p><a href="http://miserend.hu/?templom=5153" target="_blank">Ugrás a templom oldalára.</a></p>	images/icons/church-green2.png	24,24	-12,-24
213	47.4312	19.0692	Kisboldogasszony-templom	<h4 style="margin-top:-20px">(Csepel-Belvárosi templom)</h4><p><a href="http://miserend.hu/?templom=213" target="_blank">Ugrás a templom oldalára.</a></p>	images/icons/church-green.png	24,24	-12,-24
214	47.52	18.6117	Szent László-templom	<h4 style="margin-top:-20px">(Csabdi)</h4><p><a href="http://miserend.hu/?templom=214" target="_blank">Ugrás a templom oldalára.</a></p>	images/icons/church-green.png	24,24	-12,-24
215	47.3928	18.463	Szent Mihály főangyal-templom	<h4 style="margin-top:-20px">(Csákvár)</h4><p><a href="http://miserend.hu/?templom=215" target="_blank">Ugrás a templom oldalára.</a></p>	images/icons/church-green.png	24,24	-12,-24
216	47.0371	18.4115	Szűz Mária neve-kápolna	<h4 style="margin-top:-20px">(Csősz)</h4><p><a href="http://miserend.hu/?templom=216" target="_blank">Ugrás a templom oldalára.</a></p>	images/icons/church-green.png	24,24	-12,-24
217	46.8304	18.8197	Kisboldogasszony-templom	<h4 style="margin-top:-20px">(Előszállás)</h4><p><a href="http://miserend.hu/?templom=217" target="_blank">Ugrás a templom oldalára.</a></p>	images/icons/church-green.png	24,24	-12,-24
218	46.9283	18.2446	Nepomuki Szent János-templom	<h4 style="margin-top:-20px">(Enying)</h4><p><a href="http://miserend.hu/?templom=218" target="_blank">Ugrás a templom oldalára.</a></p>	images/icons/church-green.png	24,24	-12,-24
219	47.2509	18.8739	Árpád-házi Szent Erzsébet-kápolna	<h4 style="margin-top:-20px">(Cukorgyári Szent Erzsébet kápolna)</h4><p><a href="http://miserend.hu/?templom=219" target="_blank">Ugrás a templom oldalára.</a></p>	images/icons/church-green.png	24,24	-12,-24
220	47.2476	18.906	Nagyboldogasszony-templom	<h4 style="margin-top:-20px">(Kegytemplom)</h4><p><a href="http://miserend.hu/?templom=220" target="_blank">Ugrás a templom oldalára.</a></p>	images/icons/church-green.png	24,24	-12,-24
221	47.4125	18.8854	Szent István király-templom	<h4 style="margin-top:-20px">(Érd-Parkvárosi templom)</h4><p><a href="http://miserend.hu/?templom=221" target="_blank">Ugrás a templom oldalára.</a></p>	images/icons/church-green.png	24,24	-12,-24
222	47.3739	18.8982	Rózsafüzér királynéja-templom	<h4 style="margin-top:-20px">(Érd-Újtelepi templom)</h4><p><a href="http://miserend.hu/?templom=222" target="_blank">Ugrás a templom oldalára.</a></p>	images/icons/church-green.png	24,24	-12,-24
223	47.3733	18.9231	Jézus Szíve-templom	<h4 style="margin-top:-20px">(Érd-Újvárosi templom)</h4><p><a href="http://miserend.hu/?templom=223" target="_blank">Ugrás a templom oldalára.</a></p>	images/icons/church-green.png	24,24	-12,-24
224	47.4982	18.9445	Angyalok királynéja-templom	<h4 style="margin-top:-20px">(Makkosmáriai templom)</h4><p><a href="http://miserend.hu/?templom=224" target="_blank">Ugrás a templom oldalára.</a></p>	images/icons/church-green.png	24,24	-12,-24
225	47.4451	18.7512	Sarlós Boldogasszony-templom	<h4 style="margin-top:-20px">(Etyek)</h4><p><a href="http://miserend.hu/?templom=225" target="_blank">Ugrás a templom oldalára.</a></p>	images/icons/church-green.png	24,24	-12,-24
226	47.2897	18.262	Alexandriai Szent Katalin-templom	<h4 style="margin-top:-20px">(Fehérvárcsurgó)</h4><p><a href="http://miserend.hu/?templom=226" target="_blank">Ugrás a templom oldalára.</a></p>	images/icons/church-green.png	24,24	-12,-24
227	47.4585	18.5864	Nagyboldogasszony-templom	<h4 style="margin-top:-20px">(Felcsút)</h4><p><a href="http://miserend.hu/?templom=227" target="_blank">Ugrás a templom oldalára.</a></p>	images/icons/church-green.png	24,24	-12,-24
228	47.3908	18.3877	Szent Vendel apát-templom	<h4 style="margin-top:-20px">(Gánt)</h4><p><a href="http://miserend.hu/?templom=228" target="_blank">Ugrás a templom oldalára.</a></p>	images/icons/church-green.png	24,24	-12,-24
229	47.2073	18.6348	Jézus Szíve-templom	<h4 style="margin-top:-20px">(Gárdony)</h4><p><a href="http://miserend.hu/?templom=229" target="_blank">Ugrás a templom oldalára.</a></p>	images/icons/church-green2.png	24,24	-12,-24
230	47.369	18.7358	Szentháromság-templom	<h4 style="margin-top:-20px">(Gyúró)</h4><p><a href="http://miserend.hu/?templom=230" target="_blank">Ugrás a templom oldalára.</a></p>	images/icons/church-green.png	24,24	-12,-24
231	46.9966	18.6948	Sarlós Boldogasszony-templom	<h4 style="margin-top:-20px">(Hantos)</h4><p><a href="http://miserend.hu/?templom=231" target="_blank">Ugrás a templom oldalára.</a></p>	images/icons/church-green.png	24,24	-12,-24
232	47.1473	18.8313	Szent Kereszt felmagasztalása-templom	<h4 style="margin-top:-20px">(Iváncsa)</h4><p><a href="http://miserend.hu/?templom=232" target="_blank">Ugrás a templom oldalára.</a></p>	images/icons/church-green.png	24,24	-12,-24
234	47.524	18.3095	Szent Anna-templom	<h4 style="margin-top:-20px">(Kecskéd)</h4><p><a href="http://miserend.hu/?templom=234" target="_blank">Ugrás a templom oldalára.</a></p>	images/icons/church-green.png	24,24	-12,-24
233	47.3229	18.7144	Kisboldogasszony-kápolna	<h4 style="margin-top:-20px">(Kajászó)</h4><p><a href="http://miserend.hu/?templom=233" target="_blank">Ugrás a templom oldalára.</a></p>	images/icons/church-green.png	24,24	-12,-24
235	46.9607	18.382	Jézus Szíve-templom	<h4 style="margin-top:-20px">(Kisláng)</h4><p><a href="http://miserend.hu/?templom=235" target="_blank">Ugrás a templom oldalára.</a></p>	images/icons/church-green.png	24,24	-12,-24
236	47.5475	18.3318	Vízkereszt-templom	<h4 style="margin-top:-20px">(Háromkirályok templom)</h4><p><a href="http://miserend.hu/?templom=236" target="_blank">Ugrás a templom oldalára.</a></p>	images/icons/church-green.png	24,24	-12,-24
237	47.0908	18.342	Szent Kereszt megtalálása-kápolna	<h4 style="margin-top:-20px">(Kőszárhegy)</h4><p><a href="http://miserend.hu/?templom=237" target="_blank">Ugrás a templom oldalára.</a></p>	images/icons/church-green.png	24,24	-12,-24
238	47.0539	18.9184	Jézus Szíve-kápolna	<h4 style="margin-top:-20px">(Kulcs)</h4><p><a href="http://miserend.hu/?templom=238" target="_blank">Ugrás a templom oldalára.</a></p>	images/icons/church-green.png	24,24	-12,-24
239	46.7993	17.2456	Rózsafüzér Királynője templom	<h4 style="margin-top:-20px">(Cserszegi templom)</h4><p><a href="http://miserend.hu/?templom=239" target="_blank">Ugrás a templom oldalára.</a></p>	images/icons/church-green.png	24,24	-12,-24
240	46.9876	18.2423	Magyarok Nagyasszonya-templom	<h4 style="margin-top:-20px">(Lepsény)</h4><p><a href="http://miserend.hu/?templom=240" target="_blank">Ugrás a templom oldalára.</a></p>	images/icons/church-green.png	24,24	-12,-24
241	47.3072	18.5495	Sarlós Boldogasszony-templom	<h4 style="margin-top:-20px">(Lovasberény)</h4><p><a href="http://miserend.hu/?templom=241" target="_blank">Ugrás a templom oldalára.</a></p>	images/icons/church-green.png	24,24	-12,-24
242	47.5287	18.6541	Szent Kereszt felmagasztalása-templom	<h4 style="margin-top:-20px">(Mány)</h4><p><a href="http://miserend.hu/?templom=242" target="_blank">Ugrás a templom oldalára.</a></p>	images/icons/church-green.png	24,24	-12,-24
243	47.3824	18.7231	Szent Anna-templom	<h4 style="margin-top:-20px">(Martonvásár)</h4><p><a href="http://miserend.hu/?templom=243" target="_blank">Ugrás a templom oldalára.</a></p>	images/icons/church-green2.png	24,24	-12,-24
244	47.375	18.2119	Szentháromság-templom	<h4 style="margin-top:-20px">(Kapucinus templom, Zárdatemplom)</h4><p><a href="http://miserend.hu/?templom=244" target="_blank">Ugrás a templom oldalára.</a></p>	images/icons/church-green.png	24,24	-12,-24
245	47.3731	18.2075	Szent Kereszt-templom	<h4 style="margin-top:-20px">(Kistemplom)</h4><p><a href="http://miserend.hu/?templom=245" target="_blank">Ugrás a templom oldalára.</a></p>	images/icons/church-green.png	24,24	-12,-24
246	46.8663	18.7747	Magyarok Nagyasszonya-templom	<h4 style="margin-top:-20px">(Nagykarácsony)</h4><p><a href="http://miserend.hu/?templom=246" target="_blank">Ugrás a templom oldalára.</a></p>	images/icons/church-green.png	24,24	-12,-24
247	46.9752	18.6403	Szűz Mária mennybevétele-templom	<h4 style="margin-top:-20px">(Nagylók)</h4><p><a href="http://miserend.hu/?templom=247" target="_blank">Ugrás a templom oldalára.</a></p>	images/icons/church-green.png	24,24	-12,-24
248	47.3587	18.1084	Jézus Szíve-kápolna	<h4 style="margin-top:-20px">(Nagyveleg)</h4><p><a href="http://miserend.hu/?templom=248" target="_blank">Ugrás a templom oldalára.</a></p>	images/icons/church-green2.png	24,24	-12,-24
249	47.4863	18.3201	Munkás Szent József-templom	<h4 style="margin-top:-20px">(Oroszlány)</h4><p><a href="http://miserend.hu/?templom=249" target="_blank">Ugrás a templom oldalára.</a></p>	images/icons/church-green.png	24,24	-12,-24
250	46.7635	17.3082	Szent Kereszt felmagasztalása-kápolna	<h4 style="margin-top:-20px">(Vonyarci kápolna)</h4><p><a href="http://miserend.hu/?templom=250" target="_blank">Ugrás a templom oldalára.</a></p>	images/icons/church-green.png	24,24	-12,-24
251	46.7599	17.3284	Szűz Mária neve-kápolna	<h4 style="margin-top:-20px">(Vashegyi kápolna)</h4><p><a href="http://miserend.hu/?templom=251" target="_blank">Ugrás a templom oldalára.</a></p>	images/icons/church-green.png	24,24	-12,-24
252	46.7526	17.3322	Szent Mihály-kápolna	<h4 style="margin-top:-20px">(Vonyarcvashegy)</h4><p><a href="http://miserend.hu/?templom=252" target="_blank">Ugrás a templom oldalára.</a></p>	images/icons/church-green.png	24,24	-12,-24
253	47.2173	18.5406	Szent József-templom	<h4 style="margin-top:-20px">(Pákozd)</h4><p><a href="http://miserend.hu/?templom=253" target="_blank">Ugrás a templom oldalára.</a></p>	images/icons/church-green.png	24,24	-12,-24
3384	46.9114	23.8143	Szent Kereszt felmagasztalása  templom	<h4 style="margin-top:-20px">(Bontida)</h4><p><a href="http://miserend.hu/?templom=3384" target="_blank">Ugrás a templom oldalára.</a></p>	images/icons/church-green.png	24,24	-12,-24
254	47.2193	18.5786	Don-Kanyar kápolna	<h4 style="margin-top:-20px">(Pákozd)</h4><p><a href="http://miserend.hu/?templom=254" target="_blank">Ugrás a templom oldalára.</a></p>	images/icons/church-green2.png	24,24	-12,-24
255	47.2746	18.491	Szent Anna  templom	<h4 style="margin-top:-20px">(Pátka)</h4><p><a href="http://miserend.hu/?templom=255" target="_blank">Ugrás a templom oldalára.</a></p>	images/icons/church-green.png	24,24	-12,-24
256	47.5145	18.8267	Szent Imre  templom	<h4 style="margin-top:-20px">(Páty)</h4><p><a href="http://miserend.hu/?templom=256" target="_blank">Ugrás a templom oldalára.</a></p>	images/icons/church-green.png	24,24	-12,-24
257	47.6828	19.2634	Szent Miklós-templom	<h4 style="margin-top:-20px">(Őrszentmiklósi templom)</h4><p><a href="http://miserend.hu/?templom=257" target="_blank">Ugrás a templom oldalára.</a></p>	images/icons/church-green.png	24,24	-12,-24
317	47.749	19.4906	Szent Pál megtérése  templom	<h4 style="margin-top:-20px">(Kálló)</h4><p><a href="http://miserend.hu/?templom=317" target="_blank">Ugrás a templom oldalára.</a></p>	images/icons/church-green.png	24,24	-12,-24
316	47.407	18.829	Kisboldogasszony  templom	<h4 style="margin-top:-20px">(Sóskút)</h4><p><a href="http://miserend.hu/?templom=316" target="_blank">Ugrás a templom oldalára.</a></p>	images/icons/church-green2.png	24,24	-12,-24
261	47.6959	19.2922	Péter és Pál apostolok-templom	<h4 style="margin-top:-20px">(Vácbottyáni templom)</h4><p><a href="http://miserend.hu/?templom=261" target="_blank">Ugrás a templom oldalára.</a></p>	images/icons/church-green.png	24,24	-12,-24
262	47.6688	19.5296	Szent Erzsébet  templom	<h4 style="margin-top:-20px">(Kartal)</h4><p><a href="http://miserend.hu/?templom=262" target="_blank">Ugrás a templom oldalára.</a></p>	images/icons/church-green.png	24,24	-12,-24
868	46.3165	16.939	Szűz Mária neve templom	<h4 style="margin-top:-20px">(Belezna)</h4><p><a href="http://miserend.hu/?templom=868" target="_blank">Ugrás a templom oldalára.</a></p>	images/icons/church-green.png	24,24	-12,-24
882	47.8995	20.3738	Szent János apostol és evangélista-főszékesegyház	<h4 style="margin-top:-20px">(Egri Bazilika)</h4><p><a href="http://miserend.hu/?templom=882" target="_blank">Ugrás a templom oldalára.</a></p>	images/icons/church-green.png	24,24	-12,-24
883	47.9062	20.3773	Szent János apostol és Fájdalmas Anya templom	<h4 style="margin-top:-20px">(Szervita templom)</h4><p><a href="http://miserend.hu/?templom=883" target="_blank">Ugrás a templom oldalára.</a></p>	images/icons/church-green.png	24,24	-12,-24
264	47.7417	19.6841	Szent Anna-kápolna	<h4 style="margin-top:-20px">(Lőrinci)</h4><p><a href="http://miserend.hu/?templom=264" target="_blank">Ugrás a templom oldalára.</a></p>	images/icons/church-green2.png	24,24	-12,-24
885	47.908	20.3711	Kisboldogasszony kápolna	<h4 style="margin-top:-20px">(Eger)</h4><p><a href="http://miserend.hu/?templom=885" target="_blank">Ugrás a templom oldalára.</a></p>	images/icons/church-green2.png	24,24	-12,-24
267	47.7386	19.6779	Szent Mihály  templom	<h4 style="margin-top:-20px">(Lőrinci)</h4><p><a href="http://miserend.hu/?templom=267" target="_blank">Ugrás a templom oldalára.</a></p>	images/icons/church-green.png	24,24	-12,-24
268	47.6125	19.5971	Nagyboldogasszony  templom	<h4 style="margin-top:-20px">(Tura)</h4><p><a href="http://miserend.hu/?templom=268" target="_blank">Ugrás a templom oldalára.</a></p>	images/icons/church-green.png	24,24	-12,-24
269	47.7224	19.547	Szent Miklós  templom	<h4 style="margin-top:-20px">(Verseg)</h4><p><a href="http://miserend.hu/?templom=269" target="_blank">Ugrás a templom oldalára.</a></p>	images/icons/church-green.png	24,24	-12,-24
270	47.781	19.6757	Szent András  templom	<h4 style="margin-top:-20px">(Zagyvaszántó)</h4><p><a href="http://miserend.hu/?templom=270" target="_blank">Ugrás a templom oldalára.</a></p>	images/icons/church-green2.png	24,24	-12,-24
271	47.5431	19.6065	Szent Erzsébet  templom	<h4 style="margin-top:-20px">(Zsámbok)</h4><p><a href="http://miserend.hu/?templom=271" target="_blank">Ugrás a templom oldalára.</a></p>	images/icons/church-green2.png	24,24	-12,-24
318	47.2401	18.6045	Loyolai Szent Ignác  templom	<h4 style="margin-top:-20px">(Sukoró)</h4><p><a href="http://miserend.hu/?templom=318" target="_blank">Ugrás a templom oldalára.</a></p>	images/icons/church-green.png	24,24	-12,-24
308	47.5914	18.9285	Szűz Mária neve  templom	<h4 style="margin-top:-20px">(Solymár)</h4><p><a href="http://miserend.hu/?templom=308" target="_blank">Ugrás a templom oldalára.</a></p>	images/icons/church-green.png	24,24	-12,-24
310	47.8248	19.4531	Árpád-házi Szent Erzsébet- templom	<h4 style="margin-top:-20px">(Vanyarc)</h4><p><a href="http://miserend.hu/?templom=310" target="_blank">Ugrás a templom oldalára.</a></p>	images/icons/church-green.png	24,24	-12,-24
311	47.9741	19.4245	Szent István király templom	<h4 style="margin-top:-20px">(Cserhátsurány)</h4><p><a href="http://miserend.hu/?templom=311" target="_blank">Ugrás a templom oldalára.</a></p>	images/icons/church-green.png	24,24	-12,-24
312	47.9698	19.4687	Szent Mihály templom	<h4 style="margin-top:-20px">(Herencsény)</h4><p><a href="http://miserend.hu/?templom=312" target="_blank">Ugrás a templom oldalára.</a></p>	images/icons/church-green.png	24,24	-12,-24
313	47.7756	19.5871	Kisboldogasszony templom	<h4 style="margin-top:-20px">(Héhalom)</h4><p><a href="http://miserend.hu/?templom=313" target="_blank">Ugrás a templom oldalára.</a></p>	images/icons/church-green.png	24,24	-12,-24
314	47.011	18.4554	Oltáriszentség templom	<h4 style="margin-top:-20px">(Soponya)</h4><p><a href="http://miserend.hu/?templom=314" target="_blank">Ugrás a templom oldalára.</a></p>	images/icons/church-green.png	24,24	-12,-24
315	47.7974	19.5633	Szent Imre templom	<h4 style="margin-top:-20px">(Egyházasdengeleg)</h4><p><a href="http://miserend.hu/?templom=315" target="_blank">Ugrás a templom oldalára.</a></p>	images/icons/church-green.png	24,24	-12,-24
276	47.9106	19.3782	Szeplőtelen fogantatás templom	<h4 style="margin-top:-20px">(Becske)</h4><p><a href="http://miserend.hu/?templom=276" target="_blank">Ugrás a templom oldalára.</a></p>	images/icons/church-green.png	24,24	-12,-24
884	47.8958	20.3923	Jézus Szíve templom	<h4 style="margin-top:-20px">(Eger)</h4><p><a href="http://miserend.hu/?templom=884" target="_blank">Ugrás a templom oldalára.</a></p>	images/icons/church-green.png	24,24	-12,-24
280	46.3448	20.0482	Szent Márton  templom	<h4 style="margin-top:-20px">(Szécsénke)</h4><p><a href="http://miserend.hu/?templom=280" target="_blank">Ugrás a templom oldalára.</a></p>	images/icons/church-green.png	24,24	-12,-24
281	47.8714	19.4058	Szent Péter és Pál templom	<h4 style="margin-top:-20px">(Bercel)</h4><p><a href="http://miserend.hu/?templom=281" target="_blank">Ugrás a templom oldalára.</a></p>	images/icons/church-green.png	24,24	-12,-24
282	47.8747	19.3736	Szent Mihály templom	<h4 style="margin-top:-20px">(Nógrádkövesd)</h4><p><a href="http://miserend.hu/?templom=282" target="_blank">Ugrás a templom oldalára.</a></p>	images/icons/church-green.png	24,24	-12,-24
4432	47.851	19.3897	Isteni Irgalmasság templom	<h4 style="margin-top:-20px">(Galgaguta)</h4><p><a href="http://miserend.hu/?templom=4432" target="_blank">Ugrás a templom oldalára.</a></p>	images/icons/church-green.png	24,24	-12,-24
283	47.2896	18.652	Boldogságos Szűz Szeplőtelen Fogantatása  templom	<h4 style="margin-top:-20px">(Pázmánd)</h4><p><a href="http://miserend.hu/?templom=283" target="_blank">Ugrás a templom oldalára.</a></p>	images/icons/church-green2.png	24,24	-12,-24
284	47.5913	18.7632	Szent Anna- templom	<h4 style="margin-top:-20px">(Perbál)</h4><p><a href="http://miserend.hu/?templom=284" target="_blank">Ugrás a templom oldalára.</a></p>	images/icons/church-green.png	24,24	-12,-24
285	47.6318	18.826	Szűz Mária neve-templom	<h4 style="margin-top:-20px">(Piliscsaba)</h4><p><a href="http://miserend.hu/?templom=285" target="_blank">Ugrás a templom oldalára.</a></p>	images/icons/church-green.png	24,24	-12,-24
286	47.6385	18.8343	Jézus Szíve-templom	<h4 style="margin-top:-20px">(Klotildligeti templom)</h4><p><a href="http://miserend.hu/?templom=286" target="_blank">Ugrás a templom oldalára.</a></p>	images/icons/church-green.png	24,24	-12,-24
287	47.6551	18.7948	Kármelhegyi Boldogasszony-kápolna	<h4 style="margin-top:-20px">(Pilisjászfalu)</h4><p><a href="http://miserend.hu/?templom=287" target="_blank">Ugrás a templom oldalára.</a></p>	images/icons/church-green.png	24,24	-12,-24
288	47.6193	18.9083	Nagyboldogasszony templom	<h4 style="margin-top:-20px">(Nagytemplom)</h4><p><a href="http://miserend.hu/?templom=288" target="_blank">Ugrás a templom oldalára.</a></p>	images/icons/church-green.png	24,24	-12,-24
289	47.6158	18.9191	Szent Borbála kápolna	<h4 style="margin-top:-20px">(Bányatelepi kápolna)</h4><p><a href="http://miserend.hu/?templom=289" target="_blank">Ugrás a templom oldalára.</a></p>	images/icons/church-green.png	24,24	-12,-24
290	47.6699	18.8871	Páduai Szent Antal-templom	<h4 style="margin-top:-20px">(Pilisszántó)</h4><p><a href="http://miserend.hu/?templom=290" target="_blank">Ugrás a templom oldalára.</a></p>	images/icons/church-green.png	24,24	-12,-24
291	47.6096	18.8976	Szűz Mária, az Isteni Gondviselés Anyja templom	<h4 style="margin-top:-20px">(Pilisszentiván)</h4><p><a href="http://miserend.hu/?templom=291" target="_blank">Ugrás a templom oldalára.</a></p>	images/icons/church-green.png	24,24	-12,-24
292	47.1363	18.7686	Szent Imre-templom	<h4 style="margin-top:-20px">(Pusztaszabolcs)</h4><p><a href="http://miserend.hu/?templom=292" target="_blank">Ugrás a templom oldalára.</a></p>	images/icons/church-green.png	24,24	-12,-24
293	47.4019	18.7771	Urunk Jézus Krisztus színeváltozása kápolna	<h4 style="margin-top:-20px">(Pusztazámor)</h4><p><a href="http://miserend.hu/?templom=293" target="_blank">Ugrás a templom oldalára.</a></p>	images/icons/church-green.png	24,24	-12,-24
4690	46.1074	18.5251	Szent Bertalan-templom	<h4 style="margin-top:-20px">(Püspöklaki templom)</h4><p><a href="http://miserend.hu/?templom=4690" target="_blank">Ugrás a templom oldalára.</a></p>	images/icons/church-red.png	24,24	-12,-24
294	47.0265	18.9376	Szent István király templom	<h4 style="margin-top:-20px">(Rácalmás)</h4><p><a href="http://miserend.hu/?templom=294" target="_blank">Ugrás a templom oldalára.</a></p>	images/icons/church-green.png	24,24	-12,-24
295	47.267	18.8346	Szent Kereszt felmagasztalása templom	<h4 style="margin-top:-20px">(Ráckeresztúr)</h4><p><a href="http://miserend.hu/?templom=295" target="_blank">Ugrás a templom oldalára.</a></p>	images/icons/church-green.png	24,24	-12,-24
296	46.8831	18.6262	Szent László király templom	<h4 style="margin-top:-20px">(Sárbogárd)</h4><p><a href="http://miserend.hu/?templom=296" target="_blank">Ugrás a templom oldalára.</a></p>	images/icons/church-green.png	24,24	-12,-24
297	47.0439	18.6423	Nepomuki Szent János templom	<h4 style="margin-top:-20px">(Sárosd)</h4><p><a href="http://miserend.hu/?templom=297" target="_blank">Ugrás a templom oldalára.</a></p>	images/icons/church-green.png	24,24	-12,-24
298	46.858	18.6293	Szent Miklós püspök templom	<h4 style="margin-top:-20px">(Sárszentmiklósi templom)</h4><p><a href="http://miserend.hu/?templom=298" target="_blank">Ugrás a templom oldalára.</a></p>	images/icons/church-green.png	24,24	-12,-24
299	46.8316	18.6364	Avilai Nagy Szent Teréz-templom	<h4 style="margin-top:-20px">(Rétszilasi templom)</h4><p><a href="http://miserend.hu/?templom=299" target="_blank">Ugrás a templom oldalára.</a></p>	images/icons/church-green2.png	24,24	-12,-24
300	47.108	18.5835	Szent Flórián vértanú templom	<h4 style="margin-top:-20px">(Seregélyes)</h4><p><a href="http://miserend.hu/?templom=300" target="_blank">Ugrás a templom oldalára.</a></p>	images/icons/church-green.png	24,24	-12,-24
301	47.109	18.6193	Magyarok Nagyasszonya kápolna	<h4 style="margin-top:-20px">(Szőlőhegyi kápolna)</h4><p><a href="http://miserend.hu/?templom=301" target="_blank">Ugrás a templom oldalára.</a></p>	images/icons/church-green.png	24,24	-12,-24
305	47.7249	17.49	Keresztelő Szent János templom	<h4 style="margin-top:-20px">(Öttevény)</h4><p><a href="http://miserend.hu/?templom=305" target="_blank">Ugrás a templom oldalára.</a></p>	images/icons/church-green.png	24,24	-12,-24
306	47.7082	17.8717	Szent János apostol és Szent Liborius püspök templom	<h4 style="margin-top:-20px">(Nagyszentjános)</h4><p><a href="http://miserend.hu/?templom=306" target="_blank">Ugrás a templom oldalára.</a></p>	images/icons/church-green.png	24,24	-12,-24
303	47.3655	16.8174	Szent Imre templom	<h4 style="margin-top:-20px">(Bő)</h4><p><a href="http://miserend.hu/?templom=303" target="_blank">Ugrás a templom oldalára.</a></p>	images/icons/church-green.png	24,24	-12,-24
304	47.6252	17.4867	Szentháromság Templom	<h4 style="margin-top:-20px">(Rábapatona)</h4><p><a href="http://miserend.hu/?templom=304" target="_blank">Ugrás a templom oldalára.</a></p>	images/icons/church-green.png	24,24	-12,-24
307	47.6722	17.6448	Szent Imre-templom	<h4 style="margin-top:-20px">(Győr)</h4><p><a href="http://miserend.hu/?templom=307" target="_blank">Ugrás a templom oldalára.</a></p>	images/icons/church-green.png	24,24	-12,-24
319	47.1206	18.3737	Szent Imre-templom	<h4 style="margin-top:-20px">(Szabadbattyán)</h4><p><a href="http://miserend.hu/?templom=319" target="_blank">Ugrás a templom oldalára.</a></p>	images/icons/church-green.png	24,24	-12,-24
320	47.3305	18.9412	Szent László templom	<h4 style="margin-top:-20px">(Százhalombatta)</h4><p><a href="http://miserend.hu/?templom=320" target="_blank">Ugrás a templom oldalára.</a></p>	images/icons/church-green.png	24,24	-12,-24
321	47.76	19.5371	Mindenszentek templom	<h4 style="margin-top:-20px">(Erdőtarcsa)</h4><p><a href="http://miserend.hu/?templom=321" target="_blank">Ugrás a templom oldalára.</a></p>	images/icons/church-green.png	24,24	-12,-24
322	47.7711	19.464	Szentlélek  templom	<h4 style="margin-top:-20px">(Erdőkürt)</h4><p><a href="http://miserend.hu/?templom=322" target="_blank">Ugrás a templom oldalára.</a></p>	images/icons/church-green.png	24,24	-12,-24
323	47.3231	18.906	Nagyboldogasszony kápolna	<h4 style="margin-top:-20px">(Százhalombatta)</h4><p><a href="http://miserend.hu/?templom=323" target="_blank">Ugrás a templom oldalára.</a></p>	images/icons/church-green.png	24,24	-12,-24
324	47.9659	19.3498	Szent Miklós-templom	<h4 style="margin-top:-20px">(Magyarnándor)</h4><p><a href="http://miserend.hu/?templom=324" target="_blank">Ugrás a templom oldalára.</a></p>	images/icons/church-green.png	24,24	-12,-24
325	47.3176	18.9086	Szent István  templom	<h4 style="margin-top:-20px">(Százhalombatta)</h4><p><a href="http://miserend.hu/?templom=325" target="_blank">Ugrás a templom oldalára.</a></p>	images/icons/church-green.png	24,24	-12,-24
327	47.7334	19.5986	Havas Boldogasszony- templom	<h4 style="margin-top:-20px">(Nagykökényes)</h4><p><a href="http://miserend.hu/?templom=327" target="_blank">Ugrás a templom oldalára.</a></p>	images/icons/church-green.png	24,24	-12,-24
328	47.8436	19.2981	Szent Jakab  templom	<h4 style="margin-top:-20px">(Nézsa)</h4><p><a href="http://miserend.hu/?templom=328" target="_blank">Ugrás a templom oldalára.</a></p>	images/icons/church-green.png	24,24	-12,-24
329	47.8733	19.2431	Szent István király-templom	<h4 style="margin-top:-20px">(Alsópetény)</h4><p><a href="http://miserend.hu/?templom=329" target="_blank">Ugrás a templom oldalára.</a></p>	images/icons/church-green.png	24,24	-12,-24
330	47.8382	19.2424	Szent Imre templom	<h4 style="margin-top:-20px">(Keszeg)</h4><p><a href="http://miserend.hu/?templom=330" target="_blank">Ugrás a templom oldalára.</a></p>	images/icons/church-green.png	24,24	-12,-24
331	48.0683	19.6244	Kisboldogasszony-templom	<h4 style="margin-top:-20px">(Nógrádsáp)</h4><p><a href="http://miserend.hu/?templom=331" target="_blank">Ugrás a templom oldalára.</a></p>	images/icons/church-green.png	24,24	-12,-24
332	47.8798	19.3092	Nagyboldogasszony templom	<h4 style="margin-top:-20px">(Legénd)</h4><p><a href="http://miserend.hu/?templom=332" target="_blank">Ugrás a templom oldalára.</a></p>	images/icons/church-green.png	24,24	-12,-24
333	47.7959	19.5952	Szent Péter és Pál-templom	<h4 style="margin-top:-20px">(Palotás)</h4><p><a href="http://miserend.hu/?templom=333" target="_blank">Ugrás a templom oldalára.</a></p>	images/icons/church-green.png	24,24	-12,-24
334	47.7731	19.3671	Szent Lőrinc templom	<h4 style="margin-top:-20px">(Püspökhatvan)</h4><p><a href="http://miserend.hu/?templom=334" target="_blank">Ugrás a templom oldalára.</a></p>	images/icons/church-green2.png	24,24	-12,-24
4426	47.8117	19.3242	Misézőhely	<h4 style="margin-top:-20px">(Csővár)</h4><p><a href="http://miserend.hu/?templom=4426" target="_blank">Ugrás a templom oldalára.</a></p>	images/icons/church-green2.png	24,24	-12,-24
335	47.2664	18.9708	Avilai Szent Teréz-templom	<h4 style="margin-top:-20px">(Szigetcsép)</h4><p><a href="http://miserend.hu/?templom=335" target="_blank">Ugrás a templom oldalára.</a></p>	images/icons/church-green.png	24,24	-12,-24
336	47.7903	19.3909	Nagyboldogasszony templom	<h4 style="margin-top:-20px">(Acsa)</h4><p><a href="http://miserend.hu/?templom=336" target="_blank">Ugrás a templom oldalára.</a></p>	images/icons/church-green.png	24,24	-12,-24
337	47.3259	19.0016	Jézus Szíve-templom	<h4 style="margin-top:-20px">(Szigethalom)</h4><p><a href="http://miserend.hu/?templom=337" target="_blank">Ugrás a templom oldalára.</a></p>	images/icons/church-green.png	24,24	-12,-24
338	47.7419	19.3777	Szent István király-kápolna	<h4 style="margin-top:-20px">(Galgagyörk)</h4><p><a href="http://miserend.hu/?templom=338" target="_blank">Ugrás a templom oldalára.</a></p>	images/icons/church-green2.png	24,24	-12,-24
339	47.3447	19.0401	Szent Piroska-templom	<h4 style="margin-top:-20px">(Görögkatolikus templom (volt Jézus Szíve templom))</h4><p><a href="http://miserend.hu/?templom=339" target="_blank">Ugrás a templom oldalára.</a></p>	images/icons/church-green.png	24,24	-12,-24
340	47.4013	18.6319	Szent Kereszt feltalálása templom	<h4 style="margin-top:-20px">(Tabajd)</h4><p><a href="http://miserend.hu/?templom=340" target="_blank">Ugrás a templom oldalára.</a></p>	images/icons/church-green.png	24,24	-12,-24
342	47.0833	18.4072	Krisztus Király templom	<h4 style="margin-top:-20px">(Tác)</h4><p><a href="http://miserend.hu/?templom=342" target="_blank">Ugrás a templom oldalára.</a></p>	images/icons/church-green.png	24,24	-12,-24
343	47.375	18.8473	Rózsafüzér királynéja templom	<h4 style="margin-top:-20px">(Tárnok)</h4><p><a href="http://miserend.hu/?templom=343" target="_blank">Ugrás a templom oldalára.</a></p>	images/icons/church-green2.png	24,24	-12,-24
344	47.3679	18.8714	Jó Pásztor templom	<h4 style="margin-top:-20px">(Tárnokligeti templom)</h4><p><a href="http://miserend.hu/?templom=344" target="_blank">Ugrás a templom oldalára.</a></p>	images/icons/church-green2.png	24,24	-12,-24
345	47.572	18.4189	Szent Gál templom	<h4 style="margin-top:-20px">(Alsógallai templom)</h4><p><a href="http://miserend.hu/?templom=345" target="_blank">Ugrás a templom oldalára.</a></p>	images/icons/church-green.png	24,24	-12,-24
346	47.5424	18.452	Szent István templom	<h4 style="margin-top:-20px">(Alsógallai templom)</h4><p><a href="http://miserend.hu/?templom=346" target="_blank">Ugrás a templom oldalára.</a></p>	images/icons/church-green.png	24,24	-12,-24
3164	46.2169	24.7911	Szent József templom	<h4 style="margin-top:-20px">(Sighişoara)</h4><p><a href="http://miserend.hu/?templom=3164" target="_blank">Ugrás a templom oldalára.</a></p>	images/icons/church-red.png	24,24	-12,-24
348	47.5424	18.452	Szűz Mária neve templom	<h4 style="margin-top:-20px">(Felsőgallai templom)</h4><p><a href="http://miserend.hu/?templom=348" target="_blank">Ugrás a templom oldalára.</a></p>	images/icons/church-green.png	24,24	-12,-24
349	47.6228	18.7763	Szent Anna-templom	<h4 style="margin-top:-20px">(Tinnye)</h4><p><a href="http://miserend.hu/?templom=349" target="_blank">Ugrás a templom oldalára.</a></p>	images/icons/church-green.png	24,24	-12,-24
351	47.9318	19.7371	Mária Magdolna  templom	<h4 style="margin-top:-20px">(Hasznosi templom)</h4><p><a href="http://miserend.hu/?templom=351" target="_blank">Ugrás a templom oldalára.</a></p>	images/icons/church-green.png	24,24	-12,-24
352	47.3422	18.752	Gyümölcsoltó Boldogasszony templom	<h4 style="margin-top:-20px">(Tordas)</h4><p><a href="http://miserend.hu/?templom=352" target="_blank">Ugrás a templom oldalára.</a></p>	images/icons/church-green.png	24,24	-12,-24
353	46.8878	18.6193	Nagyboldogasszony-kápolna	<h4 style="margin-top:-20px">(Alsótöbörzsöki kápolna)</h4><p><a href="http://miserend.hu/?templom=353" target="_blank">Ugrás a templom oldalára.</a></p>	images/icons/church-red2.png	24,24	-12,-24
354	47.3212	18.9606	Kisboldogasszony-templom	<h4 style="margin-top:-20px">(Tököl)</h4><p><a href="http://miserend.hu/?templom=354" target="_blank">Ugrás a templom oldalára.</a></p>	images/icons/church-green.png	24,24	-12,-24
355	47.428	18.915	Szűz Mária bemutatása-templom	<h4 style="margin-top:-20px">(Törökbálint)</h4><p><a href="http://miserend.hu/?templom=355" target="_blank">Ugrás a templom oldalára.</a></p>	images/icons/church-green.png	24,24	-12,-24
356	47.4352	18.9262	Mária segíts-kápolna	<h4 style="margin-top:-20px">(Temetői kápolna)</h4><p><a href="http://miserend.hu/?templom=356" target="_blank">Ugrás a templom oldalára.</a></p>	images/icons/church-green.png	24,24	-12,-24
357	47.3585	18.6733	Hétfájdalmú Szűz templom	<h4 style="margin-top:-20px">(Vál)</h4><p><a href="http://miserend.hu/?templom=357" target="_blank">Ugrás a templom oldalára.</a></p>	images/icons/church-green.png	24,24	-12,-24
358	47.4749	18.3984	Szent Vendel és Szent Miklós püspök templom	<h4 style="margin-top:-20px">(Várgesztes)</h4><p><a href="http://miserend.hu/?templom=358" target="_blank">Ugrás a templom oldalára.</a></p>	images/icons/church-green.png	24,24	-12,-24
359	47.5565	18.5964	Magyarok Nagyasszonya-templom	<h4 style="margin-top:-20px">(Vasztélypusztai templom)</h4><p><a href="http://miserend.hu/?templom=359" target="_blank">Ugrás a templom oldalára.</a></p>	images/icons/church-green2.png	24,24	-12,-24
360	47.2395	18.6428	Szent István király templom	<h4 style="margin-top:-20px">(Velence Ó-falu Szent István templom)</h4><p><a href="http://miserend.hu/?templom=360" target="_blank">Ugrás a templom oldalára.</a></p>	images/icons/church-green.png	24,24	-12,-24
361	47.2244	18.6619	Kalazanci Szent József-templom	<h4 style="margin-top:-20px">(Újtelepi templom)</h4><p><a href="http://miserend.hu/?templom=361" target="_blank">Ugrás a templom oldalára.</a></p>	images/icons/church-green.png	24,24	-12,-24
362	47.9618	19.3148	Szent Erzsébet templom	<h4 style="margin-top:-20px">(Debercsény)</h4><p><a href="http://miserend.hu/?templom=362" target="_blank">Ugrás a templom oldalára.</a></p>	images/icons/church-green.png	24,24	-12,-24
363	47.9365	19.3103	Szent Imre templom	<h4 style="margin-top:-20px">(Kisecset)</h4><p><a href="http://miserend.hu/?templom=363" target="_blank">Ugrás a templom oldalára.</a></p>	images/icons/church-green2.png	24,24	-12,-24
364	47.9479	19.4383	Szent András templom	<h4 style="margin-top:-20px">(Terény)</h4><p><a href="http://miserend.hu/?templom=364" target="_blank">Ugrás a templom oldalára.</a></p>	images/icons/church-green.png	24,24	-12,-24
365	47.3193	18.62	Nepomuki Szent János templom	<h4 style="margin-top:-20px">(Vereb)</h4><p><a href="http://miserend.hu/?templom=365" target="_blank">Ugrás a templom oldalára.</a></p>	images/icons/church-green2.png	24,24	-12,-24
366	47.9276	19.4413	Szent Márton templom	<h4 style="margin-top:-20px">(Szanda)</h4><p><a href="http://miserend.hu/?templom=366" target="_blank">Ugrás a templom oldalára.</a></p>	images/icons/church-green.png	24,24	-12,-24
367	47.8823	19.5413	Szent Márton templom	<h4 style="margin-top:-20px">(Buják)</h4><p><a href="http://miserend.hu/?templom=367" target="_blank">Ugrás a templom oldalára.</a></p>	images/icons/church-green.png	24,24	-12,-24
368	47.3741	18.5798	Szent Kereszt feltalálása templom	<h4 style="margin-top:-20px">(Vértesacsa)</h4><p><a href="http://miserend.hu/?templom=368" target="_blank">Ugrás a templom oldalára.</a></p>	images/icons/church-green.png	24,24	-12,-24
369	47.4308	18.5266	Assisi Szent Ferenc templom	<h4 style="margin-top:-20px">(Vértesboglár)</h4><p><a href="http://miserend.hu/?templom=369" target="_blank">Ugrás a templom oldalára.</a></p>	images/icons/church-green.png	24,24	-12,-24
370	47.5101	18.3662	Sarlós Boldogasszony templom	<h4 style="margin-top:-20px">(Vértessomló)</h4><p><a href="http://miserend.hu/?templom=370" target="_blank">Ugrás a templom oldalára.</a></p>	images/icons/church-green.png	24,24	-12,-24
371	47.9405	19.5808	Kisboldogasszony templom	<h4 style="margin-top:-20px">(Cserhátszentiván)</h4><p><a href="http://miserend.hu/?templom=371" target="_blank">Ugrás a templom oldalára.</a></p>	images/icons/church-green.png	24,24	-12,-24
372	47.5484	18.7193	Keresztelő Szent János születése templom	<h4 style="margin-top:-20px">(Zsámbék)</h4><p><a href="http://miserend.hu/?templom=372" target="_blank">Ugrás a templom oldalára.</a></p>	images/icons/church-green.png	24,24	-12,-24
373	47.8644	19.6247	Kisboldogasszony templom	<h4 style="margin-top:-20px">(Csécse)</h4><p><a href="http://miserend.hu/?templom=373" target="_blank">Ugrás a templom oldalára.</a></p>	images/icons/church-green.png	24,24	-12,-24
374	47.8969	19.6063	Mindenszentek-templom	<h4 style="margin-top:-20px">(Ecseg)</h4><p><a href="http://miserend.hu/?templom=374" target="_blank">Ugrás a templom oldalára.</a></p>	images/icons/church-green.png	24,24	-12,-24
375	47.8299	19.6762	Szent György templom	<h4 style="margin-top:-20px">(Jobbágyi)</h4><p><a href="http://miserend.hu/?templom=375" target="_blank">Ugrás a templom oldalára.</a></p>	images/icons/church-green.png	24,24	-12,-24
3208	46.8117	16.7774	Jézus Szíve iskolakápolna	<h4 style="margin-top:-20px">(Rám falurész kápolnája)</h4><p><a href="http://miserend.hu/?templom=3208" target="_blank">Ugrás a templom oldalára.</a></p>	images/icons/church-red2.png	24,24	-12,-24
377	47.8236	19.5844	Avilai Szent Teréz-templom	<h4 style="margin-top:-20px">(Kisbágyon)</h4><p><a href="http://miserend.hu/?templom=377" target="_blank">Ugrás a templom oldalára.</a></p>	images/icons/church-green.png	24,24	-12,-24
378	47.8273	19.5335	Nagyboldogasszony templom	<h4 style="margin-top:-20px">(Szirák)</h4><p><a href="http://miserend.hu/?templom=378" target="_blank">Ugrás a templom oldalára.</a></p>	images/icons/church-green.png	24,24	-12,-24
379	47.9585	19.6828	Szent Erzsébet templom	<h4 style="margin-top:-20px">(Mátraszőlős)</h4><p><a href="http://miserend.hu/?templom=379" target="_blank">Ugrás a templom oldalára.</a></p>	images/icons/church-green.png	24,24	-12,-24
3032	47.7656	21.7807	Szent Anna templom	<h4 style="margin-top:-20px">(Geszteréd)</h4><p><a href="http://miserend.hu/?templom=3032" target="_blank">Ugrás a templom oldalára.</a></p>	images/icons/church-green.png	24,24	-12,-24
3033	47.7313	21.7527	Rózsafűzér királynője-templom	<h4 style="margin-top:-20px">(Bököny)</h4><p><a href="http://miserend.hu/?templom=3033" target="_blank">Ugrás a templom oldalára.</a></p>	images/icons/church-green2.png	24,24	-12,-24
3034	47.811	21.7627	Mária halála templom	<h4 style="margin-top:-20px">(Érpatak)</h4><p><a href="http://miserend.hu/?templom=3034" target="_blank">Ugrás a templom oldalára.</a></p>	images/icons/church-green2.png	24,24	-12,-24
3035	47.7607	21.9016	Szent István király templom	<h4 style="margin-top:-20px">(Szakoly)</h4><p><a href="http://miserend.hu/?templom=3035" target="_blank">Ugrás a templom oldalára.</a></p>	images/icons/church-green2.png	24,24	-12,-24
3036	47.8594	21.9234	Nagyboldogasszony templom	<h4 style="margin-top:-20px">(Kállósemjén)</h4><p><a href="http://miserend.hu/?templom=3036" target="_blank">Ugrás a templom oldalára.</a></p>	images/icons/church-green2.png	24,24	-12,-24
3037	47.9398	21.9778	Szűz Mária szíve templom	<h4 style="margin-top:-20px">(Magy)</h4><p><a href="http://miserend.hu/?templom=3037" target="_blank">Ugrás a templom oldalára.</a></p>	images/icons/church-green2.png	24,24	-12,-24
3038	47.9641	22.0097	Misézőhely	<h4 style="margin-top:-20px">(Besenyőd)</h4><p><a href="http://miserend.hu/?templom=3038" target="_blank">Ugrás a templom oldalára.</a></p>	images/icons/church-green2.png	24,24	-12,-24
3039	47.8765	21.8461	Péter és Pál-templom	<h4 style="margin-top:-20px">(Nagykálló)</h4><p><a href="http://miserend.hu/?templom=3039" target="_blank">Ugrás a templom oldalára.</a></p>	images/icons/church-green.png	24,24	-12,-24
4449	47.8753	21.846	Kórházkápolna - Pszichiátriai Szakkórház	<h4 style="margin-top:-20px">(Nagykálló)</h4><p><a href="http://miserend.hu/?templom=4449" target="_blank">Ugrás a templom oldalára.</a></p>	images/icons/church-green.png	24,24	-12,-24
3040	47.8142	21.855	Páduai Szent Antal templom	<h4 style="margin-top:-20px">(Biri)</h4><p><a href="http://miserend.hu/?templom=3040" target="_blank">Ugrás a templom oldalára.</a></p>	images/icons/church-green2.png	24,24	-12,-24
381	48	19.7614	Nagyboldogasszony-bazilika	<h4 style="margin-top:-20px">(Szentkúti templom)</h4><p><a href="http://miserend.hu/?templom=381" target="_blank">Ugrás a templom oldalára.</a></p>	images/icons/church-green.png	24,24	-12,-24
4983	48.0168	20.8242	Istenszülő oltalma-templom	<h4 style="margin-top:-20px">(Mályi Görögkatolikus templom)</h4><p><a href="http://miserend.hu/?templom=4983" target="_blank">Ugrás a templom oldalára.</a></p>	images/icons/church-green2.png	24,24	-12,-24
382	47.6762	17.6385	Kórházkápolna	<h4 style="margin-top:-20px">(Zrínyi utcai kápolna)</h4><p><a href="http://miserend.hu/?templom=382" target="_blank">Ugrás a templom oldalára.</a></p>	images/icons/church-green2.png	24,24	-12,-24
383	47.6507	17.5245	Szent Kereszt felmagasztalása templom	<h4 style="margin-top:-20px">(Ikrény)</h4><p><a href="http://miserend.hu/?templom=383" target="_blank">Ugrás a templom oldalára.</a></p>	images/icons/church-green.png	24,24	-12,-24
384	47.8583	19.6958	Szent Kereszt felmagasztalása-templom	<h4 style="margin-top:-20px">(Püspöki templom)</h4><p><a href="http://miserend.hu/?templom=384" target="_blank">Ugrás a templom oldalára.</a></p>	images/icons/church-green.png	24,24	-12,-24
5152	47.7152	21.8641	Iskolakápolna	<h4 style="margin-top:-20px">(abapusztai római katolikus kápolna)</h4><p><a href="http://miserend.hu/?templom=5152" target="_blank">Ugrás a templom oldalára.</a></p>	images/icons/church-green2.png	24,24	-12,-24
385	47.6616	17.6407	Szentlélek templom	<h4 style="margin-top:-20px">(Győr)</h4><p><a href="http://miserend.hu/?templom=385" target="_blank">Ugrás a templom oldalára.</a></p>	images/icons/church-green.png	24,24	-12,-24
386	47.6873	17.6227	Szent Rókus és Sebestyén templom	<h4 style="margin-top:-20px">(Szigeti templom)</h4><p><a href="http://miserend.hu/?templom=386" target="_blank">Ugrás a templom oldalára.</a></p>	images/icons/church-green.png	24,24	-12,-24
387	47.6839	17.6227	Urunk színeváltozása-templom	<h4 style="margin-top:-20px">(Újvárosi templom)</h4><p><a href="http://miserend.hu/?templom=387" target="_blank">Ugrás a templom oldalára.</a></p>	images/icons/church-green.png	24,24	-12,-24
388	47.6889	17.631	Nagyboldogasszony-székesegyház	<h4 style="margin-top:-20px">(Bazilika)</h4><p><a href="http://miserend.hu/?templom=388" target="_blank">Ugrás a templom oldalára.</a></p>	images/icons/church-green.png	24,24	-12,-24
389	47.74	17.5181	Szent Lőrinc vértanú-templom	<h4 style="margin-top:-20px">(Kunsziget)</h4><p><a href="http://miserend.hu/?templom=389" target="_blank">Ugrás a templom oldalára.</a></p>	images/icons/church-green.png	24,24	-12,-24
896	47.9003	20.378	Szeplőtelen Fogantatás, Nagyboldogasszony templom	<h4 style="margin-top:-20px">(barátok temploma, ferences templom)</h4><p><a href="http://miserend.hu/?templom=896" target="_blank">Ugrás a templom oldalára.</a></p>	images/icons/church-green.png	24,24	-12,-24
1765	47.9951	22.3199	Szent Miklós kápolna	<h4 style="margin-top:-20px">(Ópályi)</h4><p><a href="http://miserend.hu/?templom=1765" target="_blank">Ugrás a templom oldalára.</a></p>	images/icons/church-green2.png	24,24	-12,-24
1343	47.2048	16.6043	Segítő Szűz Mária templom	<h4 style="margin-top:-20px">(Újperinti templom)</h4><p><a href="http://miserend.hu/?templom=1343" target="_blank">Ugrás a templom oldalára.</a></p>	images/icons/church-green2.png	24,24	-12,-24
4424	47.4994	19.4816	Misézőhely	<h4 style="margin-top:-20px">(Dányszentkirály)</h4><p><a href="http://miserend.hu/?templom=4424" target="_blank">Ugrás a templom oldalára.</a></p>	images/icons/church-green2.png	24,24	-12,-24
1345	46.8104	20.8461	Szent László-templom	<h4 style="margin-top:-20px">(Hunya)</h4><p><a href="http://miserend.hu/?templom=1345" target="_blank">Ugrás a templom oldalára.</a></p>	images/icons/church-green.png	24,24	-12,-24
405	47.6695	19.3072	Jézus Szíve-templom	<h4 style="margin-top:-20px">(Erdőkertes)</h4><p><a href="http://miserend.hu/?templom=405" target="_blank">Ugrás a templom oldalára.</a></p>	images/icons/church-green.png	24,24	-12,-24
1775	47.7994	22.2776	Szent József templom	<h4 style="margin-top:-20px">(Terem)</h4><p><a href="http://miserend.hu/?templom=1775" target="_blank">Ugrás a templom oldalára.</a></p>	images/icons/church-green2.png	24,24	-12,-24
399	47.1778	18.5639	Szent György-templom	<h4 style="margin-top:-20px">(Dinnyés)</h4><p><a href="http://miserend.hu/?templom=399" target="_blank">Ugrás a templom oldalára.</a></p>	images/icons/church-green.png	24,24	-12,-24
402	47.5488	19.2266	Szentháromság  templom	<h4 style="margin-top:-20px">(Csömör)</h4><p><a href="http://miserend.hu/?templom=402" target="_blank">Ugrás a templom oldalára.</a></p>	images/icons/church-green.png	24,24	-12,-24
403	47.521	19.5497	Szent Jakab apostol  templom	<h4 style="margin-top:-20px">(Dány)</h4><p><a href="http://miserend.hu/?templom=403" target="_blank">Ugrás a templom oldalára.</a></p>	images/icons/church-green.png	24,24	-12,-24
404	47.4447	19.3189	Páduai Szent Antal-templom	<h4 style="margin-top:-20px">(Ecser)</h4><p><a href="http://miserend.hu/?templom=404" target="_blank">Ugrás a templom oldalára.</a></p>	images/icons/church-green.png	24,24	-12,-24
1778	48.422	21.2796	Szent István Király Templom	<h4 style="margin-top:-20px">(Hejce)</h4><p><a href="http://miserend.hu/?templom=1778" target="_blank">Ugrás a templom oldalára.</a></p>	images/icons/church-green2.png	24,24	-12,-24
898	48.0671	19.2811	Mária a Szentlélek Mátkája-templom	<h4 style="margin-top:-20px">(Süvítőtelepi templom, Újtemplom)</h4><p><a href="http://miserend.hu/?templom=898" target="_blank">Ugrás a templom oldalára.</a></p>	images/icons/church-green.png	24,24	-12,-24
899	48.0741	19.2962	Bosco Szent János-templom	<h4 style="margin-top:-20px">(Szalézi templom)</h4><p><a href="http://miserend.hu/?templom=899" target="_blank">Ugrás a templom oldalára.</a></p>	images/icons/church-green.png	24,24	-12,-24
900	48.0135	19.2786	Szent Márton-templom	<h4 style="margin-top:-20px">(Csesztve)</h4><p><a href="http://miserend.hu/?templom=900" target="_blank">Ugrás a templom oldalára.</a></p>	images/icons/church-green.png	24,24	-12,-24
406	47.5994	19.3481	Nepomuki Szent János-kápolna	<h4 style="margin-top:-20px">(Kastélykápolna)</h4><p><a href="http://miserend.hu/?templom=406" target="_blank">Ugrás a templom oldalára.</a></p>	images/icons/church-green2.png	24,24	-12,-24
2522	45.8595	17.9831	Nagyboldogasszony templom	<h4 style="margin-top:-20px">(Vajszló)</h4><p><a href="http://miserend.hu/?templom=2522" target="_blank">Ugrás a templom oldalára.</a></p>	images/icons/church-green2.png	24,24	-12,-24
2524	46.7362	16.724	Szent Kereszt felmagasztalása templom	<h4 style="margin-top:-20px">(Petrikeresztúr)</h4><p><a href="http://miserend.hu/?templom=2524" target="_blank">Ugrás a templom oldalára.</a></p>	images/icons/church-green2.png	24,24	-12,-24
2526	47.2822	17.8722	Szent Vendel-templom	<h4 style="margin-top:-20px">(Kardosréti templom)</h4><p><a href="http://miserend.hu/?templom=2526" target="_blank">Ugrás a templom oldalára.</a></p>	images/icons/church-green2.png	24,24	-12,-24
395	47.947	19.7459	Szent Mihály főangyal  templom	<h4 style="margin-top:-20px">(Tar)</h4><p><a href="http://miserend.hu/?templom=395" target="_blank">Ugrás a templom oldalára.</a></p>	images/icons/church-green.png	24,24	-12,-24
408	47.5903	19.3615	Szentlélek és Gyümölcsoltó Boldogasszony  templom	<h4 style="margin-top:-20px">(Premontrei Kápolna)</h4><p><a href="http://miserend.hu/?templom=408" target="_blank">Ugrás a templom oldalára.</a></p>	images/icons/church-green.png	24,24	-12,-24
409	47.5919	19.387	ORA-kápolna	<h4 style="margin-top:-20px">(Gödöllő)</h4><p><a href="http://miserend.hu/?templom=409" target="_blank">Ugrás a templom oldalára.</a></p>	images/icons/church-green2.png	24,24	-12,-24
410	47.5296	19.3983	Szent István király-templom	<h4 style="margin-top:-20px">(Isaszeg)</h4><p><a href="http://miserend.hu/?templom=410" target="_blank">Ugrás a templom oldalára.</a></p>	images/icons/church-green.png	24,24	-12,-24
411	47.5245	19.3912	Szent Márton  templom	<h4 style="margin-top:-20px">(Isaszeg)</h4><p><a href="http://miserend.hu/?templom=411" target="_blank">Ugrás a templom oldalára.</a></p>	images/icons/church-green2.png	24,24	-12,-24
412	47.5638	19.29	Szent Anna-templom	<h4 style="margin-top:-20px">(Kerepes)</h4><p><a href="http://miserend.hu/?templom=412" target="_blank">Ugrás a templom oldalára.</a></p>	images/icons/church-green.png	24,24	-12,-24
413	47.5414	19.2687	Rózsafüzér Királynéja-templom	<h4 style="margin-top:-20px">(Kistarcsai templom)</h4><p><a href="http://miserend.hu/?templom=413" target="_blank">Ugrás a templom oldalára.</a></p>	images/icons/church-green.png	24,24	-12,-24
414	47.5311	19.282	Bosco Szent János-templom	<h4 style="margin-top:-20px">(Nagytarcsa)</h4><p><a href="http://miserend.hu/?templom=414" target="_blank">Ugrás a templom oldalára.</a></p>	images/icons/church-green.png	24,24	-12,-24
415	47.443	19.3504	Rózsafüzér Királynője templom	<h4 style="margin-top:-20px">(Maglód)</h4><p><a href="http://miserend.hu/?templom=415" target="_blank">Ugrás a templom oldalára.</a></p>	images/icons/church-green.png	24,24	-12,-24
416	47.5956	19.2406	Szent Mihály főangyal-templom	<h4 style="margin-top:-20px">(Mogyoród)</h4><p><a href="http://miserend.hu/?templom=416" target="_blank">Ugrás a templom oldalára.</a></p>	images/icons/church-green2.png	24,24	-12,-24
417	47.4888	19.3358	Magyarok Nagyasszonya templom	<h4 style="margin-top:-20px">(Pécel)</h4><p><a href="http://miserend.hu/?templom=417" target="_blank">Ugrás a templom oldalára.</a></p>	images/icons/church-green.png	24,24	-12,-24
418	47.1755	18.4167	Szent Kereszt temetőkápolna	<h4 style="margin-top:-20px">(Sóstói temetőkápolna)</h4><p><a href="http://miserend.hu/?templom=418" target="_blank">Ugrás a templom oldalára.</a></p>	images/icons/church-green2.png	24,24	-12,-24
419	47.2812	18.7613	Mindenszentek-templom	<h4 style="margin-top:-20px">(Baracska)</h4><p><a href="http://miserend.hu/?templom=419" target="_blank">Ugrás a templom oldalára.</a></p>	images/icons/church-green.png	24,24	-12,-24
420	47.205	18.2575	Sarlós Boldogasszony-templom	<h4 style="margin-top:-20px">(Csór)</h4><p><a href="http://miserend.hu/?templom=420" target="_blank">Ugrás a templom oldalára.</a></p>	images/icons/church-green.png	24,24	-12,-24
421	47.053	18.2454	Keresztelő Szent János születése-templom	<h4 style="margin-top:-20px">(Füle)</h4><p><a href="http://miserend.hu/?templom=421" target="_blank">Ugrás a templom oldalára.</a></p>	images/icons/church-green.png	24,24	-12,-24
